id,description,event_cause,corridor,priority,requires_road_closure,address,latitude,longitude,start_datetime,end_datetime,status,duration_minutes,retrieval_text
FKID000008,"Cricket Match at M Chinnaswamy Satdium, [LOCATION].",public_event,CBD 2,High,False,"ಲಿಂಕ್ ರಸ್ತೆ, ಅಶೋಕನಗರ, ಬೆಂಗಳೂರು ಮಧ್ಯ ನಗರ ನಿಗಮ, Bengaluru, ಬೆಂಗಳೂರು ಉತ್ತರ, ಬೆಂಗಳೂರು ನಗರ, Karnataka, 560001, India",12.97883573,77.59953728,2024-02-12 02:05:46+00:00,2024-02-12 14:05:46+00:00,closed,720.0,"public_event | CBD 2 | Cricket Match at M Chinnaswamy Satdium, [LOCATION]."
FKID000040,[LOCATION] works going on sir,construction,ORR East 1,High,False,"Outer Ring Road, Sumadhura Platinum Square, Kadubisanahalli, Bengaluru, Karnataka. Pin-560037 (India)",12.946469,77.6986754,,2024-01-30 11:31:46+00:00,closed,,construction | ORR East 1 | [LOCATION] works going on sir
FKID000052,[LOCATION] towards marathhalli and karthiknagara towards mahadevpura traffic movement will be slow due to metrostation work,construction,ORR East 2,High,False,"Outer Ring Road, Karthik Nagar, Marathahalli, Bengaluru, Karnataka. Pin-560037 (India)",12.9694079,77.7006346,,2024-01-31 09:05:46+00:00,closed,,construction | ORR East 2 | [LOCATION] towards marathhalli and karthiknagara towards mahadevpura traffic movement will be slow due to metrostation work
FKID000082,karthiknagara towards [LOCATION] and karthiknagara towards marathhalli traffic movement will be slow due to [LOCATION] station piller work,construction,ORR East 2,High,False,"Outer Ring Road, Karthik Nagar, Marathahalli, Bengaluru, Karnataka. Pin-560037 (India)",12.969418,77.7006526,,2024-03-08 10:05:46+00:00,closed,,construction | ORR East 2 | karthiknagara towards [LOCATION] and karthiknagara towards marathhalli traffic movement will be slow due to [LOCATION] station piller work
FKID000139,[LOCATION] towards marathhalli and karthiknagara towards mahadevpura traffic movement will be slow due to metrostation work,construction,ORR East 2,High,False,"Outer Ring Road, Karthik Nagar, Marathahalli, Bengaluru, Karnataka. Pin-560037 (India)",12.9693576,77.7006406,,2024-02-01 09:05:46+00:00,closed,,construction | ORR East 2 | [LOCATION] towards marathhalli and karthiknagara towards mahadevpura traffic movement will be slow due to metrostation work
FKID000158,Off road bmtc bus,construction,Old Madras Road,High,False,"St Marks Road, Anil Kumble Chowk, Shivaji Nagar, Bengaluru, Karnataka. Pin-560001 (India)",12.9762232,77.6016656,,2024-01-31 18:26:46+00:00,closed,,construction | Old Madras Road | Off road bmtc bus
FKID000166,"ನಮಸ್ತೆ ಸರ್, ಟೊಯೋಟಾ ಶೋರೂಮ್ ಹತ್ತಿರ ಟುವರ್ಡ್ಸ್ ಬೆಂಗಳೂರು ಸಿಟಿ ಕಡೆ ರೋಡ್  ಕೆಲಸ ಮಾಡುತ್ತಿದ್ದರಿಂದ ಟ್ರಾಫಿಕ್ ಮೂಮೆಂಟ್ಸ್ ಸ್ಲೋ  ಆಗಿರುತ್ತದೆ",construction,Bellary Road 2,High,False,"Bengaluru Bellary Road, Hunsemarrenhalli Junction, Hunasamaranahalli, Bengaluru, Karnataka. Pin-562157 (India)",13.1511992,77.620242,,2024-02-01 06:07:46+00:00,closed,,"construction | Bellary Road 2 | ನಮಸ್ತೆ ಸರ್, ಟೊಯೋಟಾ ಶೋರೂಮ್ ಹತ್ತಿರ ಟುವರ್ಡ್ಸ್ ಬೆಂಗಳೂರು ಸಿಟಿ ಕಡೆ ರೋಡ್  ಕೆಲಸ ಮಾಡುತ್ತಿದ್ದರಿಂದ ಟ್ರಾಫಿಕ್ ಮೂಮೆಂಟ್ಸ್ ಸ್ಲೋ  ಆಗಿರುತ್ತದೆ"
FKID000192,k ride work,construction,Non-corridor,Low,False,"Hesaraghatta Main Road, Sri M Vishveshwaraiah Layout, Chikkabanavara, Bengaluru, Karnataka. Pin-560090 (India)",13.07835,77.502205,,2024-03-08 04:32:46+00:00,closed,,construction | Non-corridor | k ride work
FKID000229,ರಸ್ತೆ ಕಾಮಗಾರಿ ಸಲುವಾಗಿ ಮಾರ್ಕೆಟ್ ಸರ್ಕಲ ಕಡೆ ಹೋಗುವ flyover ಮುಚ್ಚಲಾಗಿರುತ್ತದೆ,construction,Mysore Road,High,True,"Mysore Road, Chanda Nagar, Sultanpete, Bengaluru, Karnataka. Pin-560053 (India)",12.965034,77.5747048,,2024-02-01 11:31:46+00:00,closed,,construction | Mysore Road | ರಸ್ತೆ ಕಾಮಗಾರಿ ಸಲುವಾಗಿ ಮಾರ್ಕೆಟ್ ಸರ್ಕಲ ಕಡೆ ಹೋಗುವ flyover ಮುಚ್ಚಲಾಗಿರುತ್ತದೆ
FKID000235,[LOCATION] towards marathhalli and karthiknagara towards mahadevpura traffic movement will be slow due to metrostation work,construction,ORR East 2,High,False,"Outer Ring Road, Karthik Nagar, Marathahalli, Bengaluru, Karnataka. Pin-560037 (India)",12.9694199,77.7006686,,2024-02-02 09:05:46+00:00,closed,,construction | ORR East 2 | [LOCATION] towards marathhalli and karthiknagara towards mahadevpura traffic movement will be slow due to metrostation work
FKID000241,LGV ವಾಹನದ ಗಲಿ ಪಂಚರಾಗಿದ್ದು ಅದನ್ನು ಸೂಲ್ಪ ಸಮಯದಲ್ಲಿ ಬದಲಾವಣೆ ಮಾಡಿಕೊಂಡು ಹೋಗುತ್ತೇವೆ ಎಂದು ತಿಳಿಸಿರುತ್ತಾರೆ ಸರ್,vip_movement,Mysore Road,High,False,"Sri Narsimha Rao Road, Town Hall Junction, Nagartapete, Bengaluru, Karnataka. Pin-560002 (India)",12.9643399,77.5855341,,2024-02-01 21:05:46+00:00,closed,,vip_movement | Mysore Road | LGV ವಾಹನದ ಗಲಿ ಪಂಚರಾಗಿದ್ದು ಅದನ್ನು ಸೂಲ್ಪ ಸಮಯದಲ್ಲಿ ಬದಲಾವಣೆ ಮಾಡಿಕೊಂಡು ಹೋಗುತ್ತೇವೆ ಎಂದು ತಿಳಿಸಿರುತ್ತಾರೆ ಸರ್
FKID000253,Towards Mysore,construction,Non-corridor,Low,True,"Bangalore Mysore Expressway, Kempegowda Layout, Kaniminike, Bengaluru, Karnataka. Pin-560074 (India)",12.860655,77.4311029,,2024-02-01 22:12:46+00:00,closed,,construction | Non-corridor | Towards Mysore
FKID000312,[LOCATION] towards marathhalli and karthiknagara towards mahadevpura traffic movement will be slow due to metrostation work,construction,ORR East 2,High,False,"Outer Ring Road, Karthik Nagar, Marathahalli, Bengaluru, Karnataka. Pin-560037 (India)",12.9694578,77.7006343,,2024-02-03 09:05:46+00:00,closed,,construction | ORR East 2 | [LOCATION] towards marathhalli and karthiknagara towards mahadevpura traffic movement will be slow due to metrostation work
FKID000355,road closue,construction,Non-corridor,Low,True,"Grant Road, Walton Road Circle, Shanthala Nagar, Bengaluru, Karnataka. Pin-560001 (India)",12.9712598,77.597572,,2024-03-09 01:18:46+00:00,closed,,construction | Non-corridor | road closue
FKID000375,Work in progress by NHAI sir,construction,Bellary Road 1,High,False,"Kempapura Main Road, Esteem Mall, Hebbal Kempapura, Bengaluru, Karnataka. Pin-560024 (India)",13.049104,77.5932567,,2024-02-03 12:20:46+00:00,closed,,construction | Bellary Road 1 | Work in progress by NHAI sir
FKID000412,BWSSB & Cable work is going near [LOCATION] service road towards [LOCATION]. service road is closed towards [LOCATION] from [LOCATION],construction,ORR North 1,High,True,"MBT Road, Govind Pura, Nagavara, Bengaluru, Karnataka. Pin-560045 (India)",13.0418551,77.6138337,,2024-03-09 02:25:46+00:00,closed,,construction | ORR North 1 | BWSSB & Cable work is going near [LOCATION] service road towards [LOCATION]. service road is closed towards [LOCATION] from [LOCATION]
FKID000426,white tapping work at Geddalahalli towards bagalur and airport back sir,construction,Non-corridor,Low,False,"Hennur Main Road, Mantri Splendor, Hiremath Layout, Geddalahalli, Bengaluru, Karnataka. Pin-560077 (India)",13.0469097,77.6445369,,2024-03-12 06:38:46+00:00,closed,,construction | Non-corridor | white tapping work at Geddalahalli towards bagalur and airport back sir
FKID000433,[PERSON] and Palakki Uthsava at Dodakkanahalli,public_event,Non-corridor,Low,True,"Gear School road, ದೊಡ್ಡಕನ್ನಲ್ಲಿ, ಗುಂಜೂರು, ಬೆಂಗಳೂರು ಪೂರ್ವ ನಗರ ನಿಗಮ, Bengaluru, ಬೆಂಗಳೂರು ಪೂರ್ವ, ಬೆಂಗಳೂರು ನಗರ, Karnataka, 560035, India",12.90731581,77.6955824,2024-02-03 22:05:46+00:00,2024-02-04 09:05:46+00:00,closed,660.0,public_event | Non-corridor | [PERSON] and Palakki Uthsava at Dodakkanahalli
FKID000437,"Sri.Tirumalaswmay
Brahma Rathotsava &
Night [PERSON]",public_event,Non-corridor,Low,True,"Gear School road, Doddakannalli, Gunjur, Bengaluru East City Corporation, Bengaluru, Bangalore East, Bengaluru Urban, Karnataka, 560035, India",12.90730454,77.69558165,2024-02-03 22:05:46+00:00,,closed,,"public_event | Non-corridor | Sri.Tirumalaswmay
Brahma Rathotsava &
Night [PERSON]"
FKID000439,IPL opening Ceremony 2026- RCB vs SRH at [LOCATION].,public_event,CBD 2,High,False,"ಕ್ವಿನ್ಸ್ ರಸ್ತೆ, ಶಾಂತಲಾ ನಗರ, ಅಶೋಕನಗರ, ಬೆಂಗಳೂರು ಮಧ್ಯ ನಗರ ನಿಗಮ, Bengaluru, ಬೆಂಗಳೂರು ಉತ್ತರ, ಬೆಂಗಳೂರು ನಗರ, Karnataka, 560001, India",12.97878153,77.59976254,2024-02-03 14:05:46+00:00,2024-02-04 14:05:46+00:00,closed,1440.0,public_event | CBD 2 | IPL opening Ceremony 2026- RCB vs SRH at [LOCATION].
FKID000468,Call me [PHONE] [LOCATION] village car festival,procession,Non-corridor,Low,True,"Ambalipura Main Road, Sonestaa Woods, Bellandur Village, Bellandur, Bengaluru, Karnataka. Pin-560103 (India)",12.9299316,77.6761985,,2024-02-05 06:05:46+00:00,closed,,procession | Non-corridor | Call me [PHONE] [LOCATION] village car festival
FKID000478,[PERSON] junction to bhoopasandra bus stand traffic Slow moment sir,procession,Non-corridor,Low,False,"Dr Rajgopal Road, MET Layout, RMV Stage 2, Bengaluru, Karnataka. Pin-560094 (India)",13.0271353,77.5796689,,2024-02-05 04:41:46+00:00,closed,,procession | Non-corridor | [PERSON] junction to bhoopasandra bus stand traffic Slow moment sir
FKID000490,"Kundalahalli towards doddanekundi main road,and [PERSON] police station towards [LOCATION] service road closed regarding metro work sir",construction,Varthur Road,High,True,"HAL Airport Road, Marathahalli, Bengaluru, Karnataka. Pin-560037 (India)",12.9567617,77.7015267,,2024-02-04 17:25:46+00:00,closed,,"construction | Varthur Road | Kundalahalli towards doddanekundi main road,and [PERSON] police station towards [LOCATION] service road closed regarding metro work sir"
FKID000502,[PERSON] and Palakki Uthsava at Bellandur,public_event,ORR East 1,High,True,"ಬೆಳ್ಳಂದೂರು, ಬೆಂಗಳೂರು ಪೂರ್ವ ನಗರ ನಿಗಮ, Bengaluru, ಬೆಂಗಳೂರು ಪೂರ್ವ, ಬೆಂಗಳೂರು ನಗರ, Karnataka, 560103, India",12.92609339,77.67623685,2024-02-04 22:05:46+00:00,2024-02-05 18:05:46+00:00,closed,1200.0,public_event | ORR East 1 | [PERSON] and Palakki Uthsava at Bellandur
FKID000553,karthiknagara towards [LOCATION] and karthiknagara towards marathhalli traffic movement will be slow due to [LOCATION] station piller work,construction,ORR East 2,High,False,"Outer Ring Road, Central Avenue, Marathahalli, Bengaluru, Karnataka. Pin-560037 (India)",12.9698023,77.7004597,,2024-03-10 10:05:46+00:00,closed,,construction | ORR East 2 | karthiknagara towards [LOCATION] and karthiknagara towards marathhalli traffic movement will be slow due to [LOCATION] station piller work
FKID000557,ಮಳೆ ಬಂದು ರಸ್ತೆ ಗುಂಡಿಗಳು ಬಿದ್ದಿದೆ ಸಂಚಾರ ನಿಧಾನಗತಿಯಲ್ಲಿದೆ ಸರ್,construction,ORR West 1,High,False,"24th Main Road, P Muniyappa Garden, JP Nagar Phase 6, Bengaluru, Karnataka. Pin-560078 (India)",12.9050763,77.5856446,,2024-03-09 21:35:46+00:00,closed,,construction | ORR West 1 | ಮಳೆ ಬಂದು ರಸ್ತೆ ಗುಂಡಿಗಳು ಬಿದ್ದಿದೆ ಸಂಚಾರ ನಿಧಾನಗತಿಯಲ್ಲಿದೆ ಸರ್
FKID000575,[LOCATION] statin work,construction,ORR East 2,High,False,"West Parallel Road, Karthik Nagar, Marathahalli, Bengaluru, Karnataka. Pin-560037 (India)",12.969172,77.7005467,2024-02-05 21:20:46+00:00,2024-02-06 09:05:46+00:00,closed,705.0,construction | ORR East 2 | [LOCATION] statin work
FKID000629,[LOCATION] towards [PERSON] and [PERSON] towards [LOCATION] traffic movement will be slow due to [LOCATION] station work,construction,ORR East 2,High,False,"Outer Ring Road, Karthik Nagar, Marathahalli, Bengaluru, Karnataka. Pin-560037 (India)",12.9694928,77.700667,,2024-02-07 09:05:46+00:00,closed,,construction | ORR East 2 | [LOCATION] towards [PERSON] and [PERSON] towards [LOCATION] traffic movement will be slow due to [LOCATION] station work
FKID000637,White Topping work from [LOCATION] to [LOCATION].,construction,Non-corridor,Low,True,"ಬಿಇಎಲ್ ರಸ್ತೆ, ಎಚ್ಎಮ್.ಟಿ ವಾರ್ಡ್, ಬೆಂಗಳೂರು ಉತ್ತರ ನಗರ ನಿಗಮ, Bengaluru, ಯಲಹಂಕ ತಾಲೂಕು, ಬೆಂಗಳೂರು ನಗರ, Karnataka, 560013, India",13.05331416,77.55094528,2023-12-11 12:05:46+00:00,2024-02-07 11:35:46+00:00,closed,83490.0,construction | Non-corridor | White Topping work from [LOCATION] to [LOCATION].
FKID000694,Puttenahalli underpass water logging cleaning work progressing from BBMP sir,construction,ORR West 1,High,False,"Dr Rajkumar Puniya Bhoomi Road, Learning to Fly, JP Nagar Phase 6, Bengaluru, Karnataka. Pin-560078 (India)",12.906294,77.5854735,,2024-02-08 05:40:46+00:00,closed,,construction | ORR West 1 | Puttenahalli underpass water logging cleaning work progressing from BBMP sir
FKID000699,Good evening sir/madam [PERSON] work at Coffee Day opposite.,construction,Bellary Road 2,High,False,"Bellary Road, Concorde Mayfair, KHB Colony, Yelahanka, Bengaluru, Karnataka. Pin-560064 (India)",13.0949499,77.5972685,,2024-02-08 06:05:46+00:00,closed,,construction | Bellary Road 2 | Good evening sir/madam [PERSON] work at Coffee Day opposite.
FKID000717,[PERSON] jain bandari college towards [LOCATION],procession,Non-corridor,Low,False,"KR Main Road, BNV Subramanya Circle, Basavanagudi, Bengaluru, Karnataka. Pin-560004 (India)",12.9533243,77.5737148,,2024-03-10 22:35:46+00:00,closed,,procession | Non-corridor | [PERSON] jain bandari college towards [LOCATION]
FKID000737,[PERSON],public_event,Non-corridor,Low,True,"Mother Teresa Circle, Saint John's Church Road, Kothandram Layout, K Kamaraj Ward, Bengaluru Central City Corporation, Bengaluru, Bangalore North, Bengaluru Urban, Karnataka, 560042, India",12.98709566,77.61905384,2024-02-07 18:05:46+00:00,2024-02-08 18:05:46+00:00,closed,1440.0,public_event | Non-corridor | [PERSON]
FKID000805,[LOCATION] towards [PERSON] and [PERSON] towards [LOCATION] traffic movement will be slow due to [LOCATION] station work,construction,ORR East 2,High,False,"Outer Ring Road, Karthik Nagar, Marathahalli, Bengaluru, Karnataka. Pin-560037 (India)",12.9696663,77.7005081,,2024-02-09 09:05:46+00:00,closed,,construction | ORR East 2 | [LOCATION] towards [PERSON] and [PERSON] towards [LOCATION] traffic movement will be slow due to [LOCATION] station work
FKID000816,road construction...no traffic,construction,Tumkur Road,High,True,"Peenya Main Road, Sri Muneshwara Industrial Estate, Peenya, Bengaluru, Karnataka. Pin-560058 (India)",13.0360195,77.5212488,,2024-02-09 12:55:46+00:00,closed,,construction | Tumkur Road | road construction...no traffic
FKID000834,shantala towards ltp road White taping road cunstuction..,construction,Non-corridor,Low,True,"Bhashyam Road, Cottonpet Circle, Cottonpete, Bengaluru, Karnataka. Pin-560053 (India)",12.9745058,77.5704978,,2024-02-24 00:08:46+00:00,closed,,construction | Non-corridor | shantala towards ltp road White taping road cunstuction..
FKID000894,"BWSSB Road Cwork at [LOCATION] junction.(12.985016993498627, 77.57213578357488)",construction,Non-corridor,Low,True,"ಧನವಂತ್ರಿ ರಸ್ತೆ, ಸ್ವತಂತ್ರ ಪಾಳ್ಯ ವಾರ್ಡ್, ಬೆಂಗಳೂರು ಮಧ್ಯ ನಗರ ನಿಗಮ, Bengaluru, ಬೆಂಗಳೂರು ಉತ್ತರ, ಬೆಂಗಳೂರು ನಗರ, Karnataka, 560009, India",12.98506103,77.57213473,2023-11-12 12:05:46+00:00,2024-02-10 12:05:46+00:00,closed,129600.0,"construction | Non-corridor | BWSSB Road Cwork at [LOCATION] junction.(12.985016993498627, 77.57213578357488)"
FKID000895,fathholls,construction,Non-corridor,Low,True,"Basavanapura Road, Sri Manjunatha Layout, KR Puram, Bengaluru, Karnataka. Pin-560049 (India)",13.0160832,77.7091853,,2024-03-11 23:34:46+00:00,closed,,construction | Non-corridor | fathholls
FKID000898,"BWSSB Road Cwork at [LOCATION] junction.(12.985016993498627, 77.57213578357488)",construction,Non-corridor,Low,True,"ಧನವಂತ್ರಿ ರಸ್ತೆ, ಸ್ವತಂತ್ರ ಪಾಳ್ಯ ವಾರ್ಡ್, ಬೆಂಗಳೂರು ಮಧ್ಯ ನಗರ ನಿಗಮ, Bengaluru, ಬೆಂಗಳೂರು ಉತ್ತರ, ಬೆಂಗಳೂರು ನಗರ, Karnataka, 560009, India",12.98506103,77.57213473,2023-11-12 12:05:46+00:00,2024-02-10 12:05:46+00:00,closed,129600.0,"construction | Non-corridor | BWSSB Road Cwork at [LOCATION] junction.(12.985016993498627, 77.57213578357488)"
FKID000946,"IPL Match 2026, BMTC Buses Holding Area, CTO Junction to BRV Junction, [LOCATION].",public_event,CBD 2,High,False,"Minsk Square, ಕಬ್ಬನ್ ರಸ್ತೆ, ವಸಂತ ನಗರ, ಬೆಂಗಳೂರು ಮಧ್ಯ ನಗರ ನಿಗಮ, Bengaluru, ಬೆಂಗಳೂರು ಉತ್ತರ, ಬೆಂಗಳೂರು ನಗರ, Karnataka, 560001, India",12.98083823,77.59757498,2024-02-11 23:05:46+00:00,2024-02-12 13:05:46+00:00,closed,840.0,"public_event | CBD 2 | IPL Match 2026, BMTC Buses Holding Area, CTO Junction to BRV Junction, [LOCATION]."
FKID000956,due to [LOCATION] festival outgoing and  incoming traffic slow movement,procession,Non-corridor,Low,False,"Canara Bank Cross Road, Konanakunte Junction, Konanakunte, Bengaluru, Karnataka. Pin-560062 (India)",12.8897429,77.5634232,,2024-02-11 10:05:46+00:00,closed,,procession | Non-corridor | due to [LOCATION] festival outgoing and  incoming traffic slow movement
FKID000970,karthiknagara towards [LOCATION] and karthiknagara towards marathhalli traffic movement will be slow due to [LOCATION] station piller work,construction,ORR East 2,High,False,"Outer Ring Road, Karthik Nagar, Marathahalli, Bengaluru, Karnataka. Pin-560037 (India)",12.9694641,77.7006492,,2024-03-12 10:05:46+00:00,closed,,construction | ORR East 2 | karthiknagara towards [LOCATION] and karthiknagara towards marathhalli traffic movement will be slow due to [LOCATION] station piller work
FKID000988,fly over load testing work sir,construction,Non-corridor,Low,True,"Mumbai Bengaluru Highway, Nagasandra, Bengaluru, Karnataka. Pin-560073 (India)",13.0488014,77.4969913,,2024-03-12 17:18:46+00:00,closed,,construction | Non-corridor | fly over load testing work sir
FKID000994,Shri. [PERSON],public_event,Non-corridor,Low,True,"Manipal County Road, Vishwapriya Nagara, Bengaluru South City Corporation, Bengaluru, Bangalore South, Bengaluru Urban, Karnataka, 560114, India",12.87879912,77.6376673,2024-02-12 22:05:46+00:00,2024-02-13 22:05:46+00:00,closed,1440.0,public_event | Non-corridor | Shri. [PERSON]
FKID000997,cable repair works on [LOCATION],construction,Non-corridor,Low,True,"Goraguntepalya Flyover, Manjunatha Nagar, Bengaluru North City Corporation, Bengaluru, Bangalore North, Bengaluru Urban, Karnataka, 560073, India",13.04889341,77.49697387,2024-03-12 17:05:46+00:00,2024-03-15 23:05:46+00:00,closed,4680.0,construction | Non-corridor | cable repair works on [LOCATION]
FKID000998,Notification done for flyover closure.,construction,Tumkur Road,High,True,"Mumbai Bengaluru Highway, Ramana Joythi Apartment, Yeshwanthpur Suburb Stage 2, Yeshwanthpur, Bengaluru, Karnataka. Pin-560022 (India)",13.0324111,77.5338246,,2024-03-15 23:05:46+00:00,closed,,construction | Tumkur Road | Notification done for flyover closure.
FKID001014,[PERSON] station work traffic slow moment sir [PERSON] towards rainbow sir,construction,ORR East 2,High,False,"Outer Ring Road, Karthik Nagar, Marathahalli, Bengaluru, Karnataka. Pin-560037 (India)",12.9694209,77.7005861,,2024-03-13 02:05:46+00:00,closed,,construction | ORR East 2 | [PERSON] station work traffic slow moment sir [PERSON] towards rainbow sir
FKID001025,karthiknagara towards [LOCATION] and karthiknagara towards marathhalli traffic movement will be slow due to [LOCATION] station piller work,construction,ORR East 2,High,False,"Outer Ring Road, Karthik Nagar, Marathahalli, Bengaluru, Karnataka. Pin-560037 (India)",12.9694344,77.7006256,,2024-03-13 10:05:46+00:00,closed,,construction | ORR East 2 | karthiknagara towards [LOCATION] and karthiknagara towards marathhalli traffic movement will be slow due to [LOCATION] station piller work
FKID001052,[LOCATION] work in progress,construction,ORR East 2,High,False,"Outer Ring Road, Karthik Nagar, Marathahalli, Bengaluru, Karnataka. Pin-560037 (India)",12.9693674,77.7006428,,2024-02-13 08:35:46+00:00,closed,,construction | ORR East 2 | [LOCATION] work in progress
FKID001059,underpass work progress,construction,Old Airport Road,High,False,"Old Airport Road, Thimma Reddy Layout, Murugeshpalya, Bengaluru, Karnataka. Pin-560017 (India)",12.9593323,77.6555092,2024-03-13 02:44:46+00:00,2024-05-14 02:46:46+00:00,active,89282.0,construction | Old Airport Road | underpass work progress
FKID001064,Public event held by a  Private Co operative society,public_event,Bellary Road 1,High,False,"ಬಳ್ಳಾರಿ ರಸ್ತೆ, ಗುಟ್ಟಹಳ್ಳಿ, ಸದಾಶಿವ ನಗರ, ಬೆಂಗಳೂರು ಪಶ್ಚಿಮ ನಗರ ನಿಗಮ, Bengaluru, ಬೆಂಗಳೂರು ಉತ್ತರ, ಬೆಂಗಳೂರು ನಗರ, Karnataka, 560003, India",13.00995617,77.58398473,2024-02-14 22:05:46+00:00,,closed,,public_event | Bellary Road 1 | Public event held by a  Private Co operative society
FKID001128,[LOCATION] station pillar work in kartiknaga towards mahadevapura sir /madam,construction,ORR East 2,High,False,"Outer Ring Road, Karthik Nagar, Marathahalli, Bengaluru, Karnataka. Pin-560037 (India)",12.9692752,77.7007183,,2024-02-14 07:05:46+00:00,closed,,construction | ORR East 2 | [LOCATION] station pillar work in kartiknaga towards mahadevapura sir /madam
FKID001135,white topping work .sultan road close,construction,Mysore Road,High,True,"BGS Flyover, Church Circle, Chamarajpet, Bengaluru, Karnataka. Pin-560018 (India)",12.9641735,77.5698015,,2024-03-07 21:44:46+00:00,closed,,construction | Mysore Road | white topping work .sultan road close
FKID001160,ನಿಯರ್ ಪಣತೂರು ರೈಲ್ವೆ ಬ್ರಿಜ್ ಹತ್ತಿರ  ಪಣತೂರ್ ಮುಖ್ಯ ರಸ್ತೆಯಲ್ಲಿ ಬೆಸ್ಕಾಂ ವರ್ಕ್ ನಡೆಯುತ್ತಿರುತ್ತದೆ.,construction,Non-corridor,Low,False,"Panathur Main Road, Panathur, Bengaluru, Karnataka. Pin-560087 (India)",12.936245,77.705295,,2024-02-14 02:31:46+00:00,closed,,construction | Non-corridor | ನಿಯರ್ ಪಣತೂರು ರೈಲ್ವೆ ಬ್ರಿಜ್ ಹತ್ತಿರ  ಪಣತೂರ್ ಮುಖ್ಯ ರಸ್ತೆಯಲ್ಲಿ ಬೆಸ್ಕಾಂ ವರ್ಕ್ ನಡೆಯುತ್ತಿರುತ್ತದೆ.
FKID001167,5k marathon,procession,Non-corridor,Low,True,"D'Souza Circle, Philomena's Hospital Road, Xavier Layout, Ashok Nagar, Ashokanagar, Bengaluru Central City Corporation, Bengaluru, Bangalore North, Bengaluru Urban, Karnataka, 560047, India",12.9671627,77.61127353,2024-02-13 06:35:46+00:00,2024-02-14 04:35:46+00:00,closed,1320.0,procession | Non-corridor | 5k marathon
FKID001198,bwssb,protest,Non-corridor,Low,True,"1st Main Road, Vinoba Nagar, Kadugondanahalli, Bengaluru, Karnataka. Pin-560045 (India)",13.0193149,77.6188821,,2024-03-13 21:19:46+00:00,closed,,protest | Non-corridor | bwssb
FKID001204,karthiknagara towards [PERSON] and [PERSON] towards [LOCATION] traffic movement will be slow due to [LOCATION] station piller work,construction,ORR East 2,High,False,"Outer Ring Road, Karthik Nagar, Marathahalli, Bengaluru, Karnataka. Pin-560037 (India)",12.9697571,77.7004934,,2024-02-15 10:05:46+00:00,closed,,construction | ORR East 2 | karthiknagara towards [PERSON] and [PERSON] towards [LOCATION] traffic movement will be slow due to [LOCATION] station piller work
FKID001211,[PERSON] bridge under pass both side [LOCATION] work main rd close and service rd open traffic slow moment sir,construction,Varthur Road,High,True,"HAL Airport Road, Marathahalli, Bengaluru, Karnataka. Pin-560037 (India)",12.9568587,77.7012705,,2024-01-31 17:05:46+00:00,closed,,construction | Varthur Road | [PERSON] bridge under pass both side [LOCATION] work main rd close and service rd open traffic slow moment sir
FKID001226,NHAI road work [PERSON] towards airport road,construction,Bellary Road 1,High,False,"Bellary Road, Kirloskar Business Park, Hebbal Kempapura, Bengaluru, Karnataka. Pin-560024 (India)",13.0515065,77.5941215,,2024-02-15 04:35:46+00:00,closed,,construction | Bellary Road 1 | NHAI road work [PERSON] towards airport road
FKID001269,road domboor work ing traffic slow moment sir,construction,Non-corridor,Low,True,"Mumbai Bengaluru Highway, Nanjundeshwara Layout, Chikkabidarakallu, Bengaluru, Karnataka. Pin-560073 (India)",13.0504812,77.4909712,,2024-02-15 12:48:46+00:00,closed,,construction | Non-corridor | road domboor work ing traffic slow moment sir
FKID001276,road work damboor road work,construction,Non-corridor,Low,True,"1st Main Road, Prestige Jindal City, Chikkabidarakallu, Bengaluru, Karnataka. Pin-560073 (India)",13.0537346,77.48854,,2024-02-15 15:04:46+00:00,closed,,construction | Non-corridor | road work damboor road work
FKID001278,metro work [LOCATION] towards kr puram sir,construction,ORR East 2,High,False,"Outer Ring Road, Karthik Nagar, Marathahalli, Bengaluru, Karnataka. Pin-560037 (India)",12.969468,77.7007118,,2024-02-16 10:05:46+00:00,closed,,construction | ORR East 2 | metro work [LOCATION] towards kr puram sir
FKID001282,white tapping is going on hennur bagalur main road sir,construction,Non-corridor,Low,False,"Hennur Main Road, Geddalahalli, Bengaluru, Karnataka. Pin-560077 (India)",13.0489059,77.6454803,,2024-03-14 05:56:46+00:00,closed,,construction | Non-corridor | white tapping is going on hennur bagalur main road sir
FKID001289,ನಮಸ್ತೆ ಸರ್ BWSSB ರವರು ಕೆಲಸ [PERSON] ಗುಂಡಿ ಮುಚ್ಚದೆ ಹಾಗೆ ರೋಡಿನ ಮಧ್ಯದಲ್ಲಿ ಬಿಟ್ಟಿರುವುದರಿಂದ ಟ್ರಾಫಿಕ್ ಸ್ಲೋ ಮೂವ್ಮೆಂಟ್ ಇದೆ,construction,Non-corridor,Low,False,"Ayodhya Road, Jalamandala CHS, Jayanagar, Bengaluru, Karnataka. Pin-560070 (India)",12.9170417,77.579445,,2024-02-16 01:55:46+00:00,closed,,construction | Non-corridor | ನಮಸ್ತೆ ಸರ್ BWSSB ರವರು ಕೆಲಸ [PERSON] ಗುಂಡಿ ಮುಚ್ಚದೆ ಹಾಗೆ ರೋಡಿನ ಮಧ್ಯದಲ್ಲಿ ಬಿಟ್ಟಿರುವುದರಿಂದ ಟ್ರಾಫಿಕ್ ಸ್ಲೋ ಮೂವ್ಮೆಂಟ್ ಇದೆ
FKID001306,[LOCATION] sir 35 th main road Ayodhya ram road trds ig BWSSB work complitede but not closed hole this reason traffic slowly moving,construction,Non-corridor,Low,False,"46th Cross Road, Jalamandala CHS, Jayanagar, Bengaluru, Karnataka. Pin-560070 (India)",12.9170961,77.5793812,,2024-02-15 13:03:46+00:00,closed,,construction | Non-corridor | [LOCATION] sir 35 th main road Ayodhya ram road trds ig BWSSB work complitede but not closed hole this reason traffic slowly moving
FKID001356,[PERSON] towards [LOCATION] and mahadevapura towards [PERSON] metro working in progress between traffic slowly moment,construction,ORR East 2,High,False,"Outer Ring Road, Karthik Nagar, Marathahalli, Bengaluru, Karnataka. Pin-560037 (India)",12.9695766,77.7004868,,2024-03-14 20:00:46+00:00,closed,,construction | ORR East 2 | [PERSON] towards [LOCATION] and mahadevapura towards [PERSON] metro working in progress between traffic slowly moment
FKID001382,karthiknagara towards [LOCATION] and karthiknagara towards marathhalli traffic movement will be slow due to [LOCATION] pillar work,construction,ORR East 2,High,False,"Outer Ring Road, Karthik Nagar, Marathahalli, Bengaluru, Karnataka. Pin-560037 (India)",12.9693554,77.7006781,,2024-02-17 10:35:46+00:00,closed,,construction | ORR East 2 | karthiknagara towards [LOCATION] and karthiknagara towards marathhalli traffic movement will be slow due to [LOCATION] pillar work
FKID001415,niyar sriniwagilu ejipura flyover water logging point 50meetr road wrk progressive sir traffic slow moment sri,construction,IRR(Thanisandra road),High,False,"Domlur Inner Ring Road, Jitendra Biswas Colony, Challaghatta, Bengaluru, Karnataka. Pin-560071 (India)",12.9387593,77.6364939,,2024-03-18 02:27:46+00:00,closed,,construction | IRR(Thanisandra road) | niyar sriniwagilu ejipura flyover water logging point 50meetr road wrk progressive sir traffic slow moment sri
FKID001434,slow traffic movement sanjainagar traffic ps limits,construction,ORR North 2,High,False,"Outer Ring Road, Abdul Patel Syed Layout, Bhoopasandra, RMV Stage 2, Bengaluru, Karnataka. Pin-560094 (India)",13.0445334,77.5829159,,2024-03-15 05:33:46+00:00,closed,,construction | ORR North 2 | slow traffic movement sanjainagar traffic ps limits
FKID001462,karthiknagara towards [PERSON] and [PERSON] towards [LOCATION] traffic movement will be slow due to [LOCATION] station piller work,construction,ORR East 2,High,False,"Outer Ring Road, Central Avenue, Marathahalli, Bengaluru, Karnataka. Pin-560037 (India)",12.9698354,77.7004398,,2024-02-18 09:05:46+00:00,closed,,construction | ORR East 2 | karthiknagara towards [PERSON] and [PERSON] towards [LOCATION] traffic movement will be slow due to [LOCATION] station piller work
FKID001480,bwssb work,construction,Old Madras Road,High,True,"Sri ML Subbaraju Road, Golden Orchid Apartment, Shanthala Nagar, Bengaluru, Karnataka. Pin-560001 (India)",12.9747826,77.5996266,,2024-02-17 22:58:46+00:00,closed,,construction | Old Madras Road | bwssb work
FKID001481,"[LOCATION]
Festival",public_event,Non-corridor,Low,True,"Begur Road, Hongasandra, Bengaluru South City Corporation, Bengaluru, Bangalore South, Bengaluru Urban, Karnataka, 560068, India",12.90331187,77.62725031,2024-02-17 00:05:46+00:00,2024-02-17 23:05:46+00:00,closed,1380.0,"public_event | Non-corridor | [LOCATION]
Festival"
FKID001499,kadubeesanahalli junction near cessna service rd sir [PERSON] work sir,construction,ORR East 1,High,True,"Kadubeesanahalli Underpass, Kadubisanahalli Junction, Kadubisanahalli, Bengaluru, Karnataka. Pin-560103 (India)",12.9392452,77.6951606,,2024-02-18 04:37:46+00:00,closed,,construction | ORR East 1 | kadubeesanahalli junction near cessna service rd sir [PERSON] work sir
FKID001523,karthiknagara towards [LOCATION] and karthiknagara towards marathhalli traffic movement will be slow due to [LOCATION] station piller work,construction,ORR East 2,High,False,"Outer Ring Road, LRDE Employee Housing Colony, Karthik Nagar, Marathahalli, Bengaluru, Karnataka. Pin-560037 (India)",12.9695275,77.7009274,,2024-03-16 10:05:46+00:00,closed,,construction | ORR East 2 | karthiknagara towards [LOCATION] and karthiknagara towards marathhalli traffic movement will be slow due to [LOCATION] station piller work
FKID001573,DUE TO SOMESHWAR PALLAKKI UTASVA,public_event,Old Madras Road,High,True,"Old Madras Road, Tamarikannan Junction, Halasuru, Bengaluru, Karnataka. Pin-560008 (India)",12.9790814,77.6293223,2024-02-18 08:05:46+00:00,2024-02-19 07:05:46+00:00,closed,1380.0,public_event | Old Madras Road | DUE TO SOMESHWAR PALLAKKI UTASVA
FKID001578,ಹಲಸೂರು ಸೋಮೇಶ್ವರ ಪಲ್ಲಕ್ಕಿ ಉತ್ಸವ ಸಲುವಾಗಿ,public_event,Old Madras Road,High,True,"Shivashankara Road, Begum Mahal Junction, Halasuru, Bengaluru, Karnataka. Pin-560008 (India)",12.97477445,77.62011006,2024-02-18 08:05:46+00:00,2024-02-19 07:05:46+00:00,closed,1380.0,public_event | Old Madras Road | ಹಲಸೂರು ಸೋಮೇಶ್ವರ ಪಲ್ಲಕ್ಕಿ ಉತ್ಸವ ಸಲುವಾಗಿ
FKID001581,ಸೋಮೇಶ್ವರ ದೇವಸ್ಥಾನ ಪಲ್ಲಕ್ಕಿ ಉತ್ಸವದ ಸಲುವಾಗಿ,public_event,Old Madras Road,High,True,"Old Madras Road, Corporation Colony, Halasuru, Bengaluru, Karnataka. Pin-560008 (India)",12.98160436,77.63123821,2024-02-18 08:05:46+00:00,2024-02-19 07:05:46+00:00,closed,1380.0,public_event | Old Madras Road | ಸೋಮೇಶ್ವರ ದೇವಸ್ಥಾನ ಪಲ್ಲಕ್ಕಿ ಉತ್ಸವದ ಸಲುವಾಗಿ
FKID001602,karthiknagara towards [PERSON] and [PERSON] towards [LOCATION] traffic movement will be slow due to [LOCATION] station pillar work,construction,ORR East 2,High,False,"Outer Ring Road, Karthik Nagar, Marathahalli, Bengaluru, Karnataka. Pin-560037 (India)",12.9695613,77.700601,,2024-02-20 10:05:46+00:00,closed,,construction | ORR East 2 | karthiknagara towards [PERSON] and [PERSON] towards [LOCATION] traffic movement will be slow due to [LOCATION] station pillar work
FKID001606,[PERSON] traffic ps limits at [LOCATION],construction,ORR North 2,High,False,"Outer Ring Road, Abdul Patel Syed Layout, Bhoopasandra, RMV Stage 2, Bengaluru, Karnataka. Pin-560094 (India)",13.0443873,77.5831779,,2024-03-16 05:18:46+00:00,closed,,construction | ORR North 2 | [PERSON] traffic ps limits at [LOCATION]
FKID001641,Road Restriction for PM Visit,vip_movement,Non-corridor,Low,True,"Magadi Road Exit, Gollarahatti, Nada prabhu Kempegowda Nagara, Bengaluru West City Corporation, Bengaluru, Bangalore North, Bengaluru Urban, Karnataka, 560091, India",12.98920996,77.47177025,2024-03-17 22:05:46+00:00,,closed,,vip_movement | Non-corridor | Road Restriction for PM Visit
FKID001648,[PERSON],procession,Non-corridor,Low,False,"Muddayanapalya Road, Gaddekhani, Anjana Nagar, Herohalli, Bengaluru, Karnataka. Pin-560091 (India)",12.986025,77.48836,,2024-02-20 08:35:46+00:00,closed,,procession | Non-corridor | [PERSON]
FKID001676,Road Restriction for PM Visit,vip_movement,Non-corridor,Low,True,"NICE Road, Talagattapura, Bengaluru South City Corporation, Bengaluru, Bangalore South, Bengaluru Urban, Karnataka, 560062, India",12.87830777,77.49542969,2024-03-17 22:05:46+00:00,2024-03-18 03:05:46+00:00,closed,300.0,vip_movement | Non-corridor | Road Restriction for PM Visit
FKID001680,"RCB vs GT IPL Match, at [LOCATION], [LOCATION].",public_event,CBD 2,High,False,"ಕ್ವಿನ್ಸ್ ರಸ್ತೆ, ಶಾಂತಲಾ ನಗರ, ಅಶೋಕನಗರ, ಬೆಂಗಳೂರು ಮಧ್ಯ ನಗರ ನಿಗಮ, Bengaluru, ಬೆಂಗಳೂರು ಉತ್ತರ, ಬೆಂಗಳೂರು ನಗರ, Karnataka, 560001, India",12.978873,77.59963336,2024-03-02 02:05:46+00:00,2024-03-02 14:05:46+00:00,closed,720.0,"public_event | CBD 2 | RCB vs GT IPL Match, at [LOCATION], [LOCATION]."
FKID001683,IPL Match at M.Chinnaswamy Stadium Bangalore.,public_event,CBD 2,High,False,"ಚಿನ್ನಸ್ವಾಮಿ ಕ್ರೀಡಾಂಗಣ, ಲಿಂಕ್ ರಸ್ತೆ, ಅಶೋಕನಗರ, ಬೆಂಗಳೂರು ಮಧ್ಯ ನಗರ ನಿಗಮ, Bengaluru, ಬೆಂಗಳೂರು ಉತ್ತರ, ಬೆಂಗಳೂರು ನಗರ, Karnataka, 560001, India",12.97878926,77.59952106,2024-02-22 02:05:46+00:00,2024-02-22 14:05:46+00:00,closed,720.0,public_event | CBD 2 | IPL Match at M.Chinnaswamy Stadium Bangalore.
FKID001685,Road Restriction for PM Visit,vip_movement,Non-corridor,Low,True,"NICE Road, Talagattapura, Bengaluru South City Corporation, Bengaluru, Bangalore South, Bengaluru Urban, Karnataka, 560083, India",12.85687109,77.52988795,2024-03-17 22:05:46+00:00,2024-03-18 03:05:46+00:00,closed,300.0,vip_movement | Non-corridor | Road Restriction for PM Visit
FKID001687,Road Restriction for PM Visit,vip_movement,Non-corridor,Low,True,"Frozen Bottle, 5, Swamy Vivekanandha Road, Thippasandra, Anjanapura, Bengaluru South City Corporation, Bengaluru, Bangalore South, Bengaluru Urban, Karnataka, 560062, India",12.88331909,77.54850021,2024-03-17 22:05:46+00:00,2024-03-18 03:05:46+00:00,closed,300.0,vip_movement | Non-corridor | Road Restriction for PM Visit
FKID001691,village festival,public_event,Non-corridor,Low,True,"Andhrahalli Main Road, Venkateshwara Layout, Bengaluru, Karnataka. Pin-560091 (India)",12.9940312,77.4888442,,2024-02-21 10:05:46+00:00,closed,,public_event | Non-corridor | village festival
FKID001721,karthiknagara towards [PERSON] and [PERSON] towards [LOCATION] traffic movement will be slow due to metro,construction,ORR East 2,High,False,"Outer Ring Road, LRDE Employee Housing Colony, Karthik Nagar, Marathahalli, Bengaluru, Karnataka. Pin-560037 (India)",12.9697339,77.7009261,,2024-02-21 10:05:46+00:00,closed,,construction | ORR East 2 | karthiknagara towards [PERSON] and [PERSON] towards [LOCATION] traffic movement will be slow due to metro
FKID001726,karthiknagara towards [LOCATION] and karthiknagara towards marathhalli traffic movement will be slow due to [LOCATION] station piller work,construction,ORR East 2,High,False,"Outer Ring Road, Karthik Nagar, Marathahalli, Bengaluru, Karnataka. Pin-560037 (India)",12.9696105,77.7005267,,2024-03-17 10:05:46+00:00,closed,,construction | ORR East 2 | karthiknagara towards [LOCATION] and karthiknagara towards marathhalli traffic movement will be slow due to [LOCATION] station piller work
FKID001734,"[PERSON]
organizes the Brahma Rathotsava,
the festival of the palanquins of Sri
Kodandaramaswamy, and the
[PERSON] program.",public_event,Non-corridor,Low,True,"Banaswadi Main Road, Vijaya Bank Colony, HRBR Layout 1st Block, Banaswadi, Bengaluru North City Corporation, Bengaluru, Bangalore East, Bengaluru Urban, Karnataka, 560043, India",13.01495345,77.65422187,2024-02-18 21:05:46+00:00,2024-02-21 20:05:46+00:00,closed,4260.0,"public_event | Non-corridor | [PERSON]
organizes the Brahma Rathotsava,
the festival of the palanquins of Sri
Kodandaramaswamy, and the
[PERSON] program."
FKID001758,drainage cleaning for mmt down ramp,construction,ORR North 1,High,False,"Old Madras Road, Royal Heritage, Pai Layout, Mahadevapura, Bengaluru, Karnataka. Pin-560016 (India)",12.9954628,77.6667978,,2024-03-16 22:41:46+00:00,closed,,construction | ORR North 1 | drainage cleaning for mmt down ramp
FKID001801,[PERSON] procession at Hosaroad and Channakesavanagar,public_event,Non-corridor,Low,True,"Hosa Road, Chikkathoguru, Bengaluru South City Corporation, Bengaluru, Bangalore South, Bengaluru Urban, Karnataka, 560100, India",12.87032563,77.65862134,2024-03-16 22:35:46+00:00,2024-03-17 04:05:46+00:00,closed,330.0,public_event | Non-corridor | [PERSON] procession at Hosaroad and Channakesavanagar
FKID001815,karthiknagara towards [PERSON] and [PERSON] towards [LOCATION] traffic movement will be slow due to [LOCATION] station piller work,construction,ORR East 2,High,False,"Outer Ring Road, Karthik Nagar, Marathahalli, Bengaluru, Karnataka. Pin-560037 (India)",12.9693675,77.7006326,,2024-02-22 10:05:46+00:00,closed,,construction | ORR East 2 | karthiknagara towards [PERSON] and [PERSON] towards [LOCATION] traffic movement will be slow due to [LOCATION] station piller work
FKID001829,karthiknagara towards [PERSON] and [PERSON] towards [LOCATION] traffic movement will be slow due to [LOCATION] station piller work,construction,ORR East 2,High,False,"Outer Ring Road, LRDE Employee Housing Colony, Karthik Nagar, Marathahalli, Bengaluru, Karnataka. Pin-560037 (India)",12.9693195,77.7012098,,2024-02-23 10:05:46+00:00,closed,,construction | ORR East 2 | karthiknagara towards [PERSON] and [PERSON] towards [LOCATION] traffic movement will be slow due to [LOCATION] station piller work
FKID001840,[LOCATION] work,construction,Varthur Road,High,True,"Marathahalli Underpass, Marathahalli, Bengaluru, Karnataka. Pin-560037 (India)",12.9568175,77.7011908,,2024-03-17 15:05:46+00:00,closed,,construction | Varthur Road | [LOCATION] work
FKID001857,VVIP Movement,vip_movement,Old Airport Road,High,True,"Institute of Aerospace Medicine - IAM, Airport Departure Road, Vibhootipura, Bengaluru East City Corporation, Bengaluru, Bangalore East, Bengaluru Urban, Karnataka, 560017, India",12.95876021,77.66366888,2024-03-17 17:05:46+00:00,2024-03-18 03:05:46+00:00,closed,600.0,vip_movement | Old Airport Road | VVIP Movement
FKID001864,"[PERSON] WORK, traffic movement is slow sir",construction,Non-corridor,Low,False,"Panathur Main Road, Vandana Tejyesh, Varthur Hobli, Panathur, Bengaluru, Karnataka. Pin-560087 (India)",12.9363031,77.7054752,,2024-02-24 06:38:46+00:00,closed,,"construction | Non-corridor | [PERSON] WORK, traffic movement is slow sir"
FKID001865,[PERSON] towords National College Ground Sir,procession,Non-corridor,Low,False,"Jain Temple Road, VV Puram, Bengaluru, Karnataka. Pin-560004 (India)",12.9510377,77.5747268,,2024-03-17 21:20:46+00:00,closed,,procession | Non-corridor | [PERSON] towords National College Ground Sir
FKID001894,[LOCATION] towards [PERSON] and [PERSON] towards [LOCATION] traffic movement will be slow due to [LOCATION] station piller work,construction,ORR East 2,High,False,"Outer Ring Road, LRDE Employee Housing Colony, Karthik Nagar, Marathahalli, Bengaluru, Karnataka. Pin-560037 (India)",12.9697729,77.7009022,,2024-02-24 10:05:46+00:00,closed,,construction | ORR East 2 | [LOCATION] towards [PERSON] and [PERSON] towards [LOCATION] traffic movement will be slow due to [LOCATION] station piller work
FKID001896,Road Restriction for PM Visit,vip_movement,Non-corridor,Low,True,"NICE Expressway, Banashankari 6th Stage - 7th Block, Banashankari 6th Stage, Talagattapura, Bengaluru South City Corporation, Bengaluru, Bangalore South, Bengaluru Urban, Karnataka, 560062, India",12.88601305,77.50546757,2024-03-17 22:05:46+00:00,2024-03-18 03:05:46+00:00,closed,300.0,vip_movement | Non-corridor | Road Restriction for PM Visit
FKID001925,Road Restriction for PM Visit,vip_movement,Non-corridor,Low,True,"Bannerghatta Road, Doddakammanahalli, Bengaluru South City Corporation, Bengaluru, Bangalore South, Bengaluru Urban, Karnataka, 560083, India",12.84974901,77.58841351,2024-03-17 22:05:46+00:00,2024-03-18 03:05:46+00:00,closed,300.0,vip_movement | Non-corridor | Road Restriction for PM Visit
FKID001930,karthiknagara towards [PERSON] and [PERSON] towards [LOCATION] traffic movement will be slow due to [LOCATION] station piller work,construction,ORR East 2,High,False,"Outer Ring Road, Karthik Nagar, Marathahalli, Bengaluru, Karnataka. Pin-560037 (India)",12.969732,77.7005722,,2024-02-25 10:05:46+00:00,closed,,construction | ORR East 2 | karthiknagara towards [PERSON] and [PERSON] towards [LOCATION] traffic movement will be slow due to [LOCATION] station piller work
FKID001934,Road Restriction for PM Visit,vip_movement,Non-corridor,Low,True,"Kanakapura Road, Talagattapura, Bengaluru South City Corporation, Bengaluru, Bangalore South, Bengaluru Urban, Karnataka, 560083, India",12.8558344,77.52546483,2024-03-17 22:05:46+00:00,2024-03-18 03:05:46+00:00,closed,300.0,vip_movement | Non-corridor | Road Restriction for PM Visit
FKID001965,vehicle diversion work bda at [LOCATION],construction,Non-corridor,Low,True,"100 Feet Road, Kanteerava Studio Circle, Bengaluru, Karnataka. Pin-560096 (India)",13.0208989,77.5283508,,2024-02-25 00:48:46+00:00,closed,,construction | Non-corridor | vehicle diversion work bda at [LOCATION]
FKID001970,Road Restriction for PM Visit,vip_movement,Mysore Road,High,True,"Bangalore-Mysore Road, Hemmigepura, Bengaluru West City Corporation, Bengaluru, Bangalore South, Bengaluru Urban, Karnataka, 560060, India",12.90516945,77.4710541,2024-03-17 22:05:46+00:00,2024-03-18 03:05:46+00:00,closed,300.0,vip_movement | Mysore Road | Road Restriction for PM Visit
FKID001979,Road Restriction for PM Visit,vip_movement,Non-corridor,Low,True,"NICE Expressway, Talagattapura, Bengaluru South City Corporation, Bengaluru, Bangalore South, Bengaluru Urban, Karnataka, 560062, India",12.88032054,77.49681914,2024-03-17 22:05:46+00:00,2024-03-18 03:05:46+00:00,closed,300.0,vip_movement | Non-corridor | Road Restriction for PM Visit
FKID001988,RCB vs DC - IPL Match at [LOCATION].,public_event,CBD 2,High,False,"ಚಿನ್ನಸ್ವಾಮಿ ಕ್ರೀಡಾಂಗಣ, ಲಿಂಕ್ ರಸ್ತೆ, ಅಶೋಕನಗರ, ಬೆಂಗಳೂರು ಮಧ್ಯ ನಗರ ನಿಗಮ, Bengaluru, ಬೆಂಗಳೂರು ಉತ್ತರ, ಬೆಂಗಳೂರು ನಗರ, Karnataka, 560001, India",12.97888794,77.59952643,2024-02-25 02:05:46+00:00,2024-02-25 14:05:46+00:00,closed,720.0,public_event | CBD 2 | RCB vs DC - IPL Match at [LOCATION].
FKID002008,Road Restriction for PM Visit,vip_movement,Mysore Road,High,True,"Bangalore-Mysore Road, Hemmigepura, Bengaluru West City Corporation, Bengaluru, Bangalore South, Bengaluru Urban, Karnataka, 560060, India",12.90407078,77.47050641,2024-03-17 22:05:46+00:00,,closed,,vip_movement | Mysore Road | Road Restriction for PM Visit
FKID002015,Road Restriction for PM Visit,vip_movement,Mysore Road,High,True,"Hemmigepura, Bengaluru West City Corporation, Bengaluru, Bangalore South, Bengaluru Urban, Karnataka, 560060, India",12.90123929,77.46726094,2024-03-17 22:05:46+00:00,,closed,,vip_movement | Mysore Road | Road Restriction for PM Visit
FKID002017,Road Restriction for PM Visit,vip_movement,Non-corridor,Low,True,"Magadi Road, Gollarahatti, Nada prabhu Kempegowda Nagara, Bengaluru West City Corporation, Bengaluru, Bangalore North, Bengaluru Urban, Karnataka, 560091, India",12.98875447,77.47251828,2024-03-17 22:05:46+00:00,,closed,,vip_movement | Non-corridor | Road Restriction for PM Visit
FKID002018,White Topping at Dr. [PERSON],construction,Non-corridor,Low,True,"Kanva Diagnostics, 2/10, Dr. Rajkumar Road, Rajajinagar 4M Block, Da.Ra. Bendre Ward, Bengaluru West City Corporation, Bengaluru, Bangalore North, Bengaluru Urban, Karnataka, 560010, India",12.98773709,77.55986202,2023-11-28 12:05:46+00:00,2024-02-26 11:35:46+00:00,closed,129570.0,construction | Non-corridor | White Topping at Dr. [PERSON]
FKID002026,karthiknagara towards [PERSON] and [PERSON] towards [LOCATION] traffic movement will be slow due to [LOCATION] station piller work,construction,ORR East 2,High,False,"Outer Ring Road, Karthik Nagar, Marathahalli, Bengaluru, Karnataka. Pin-560037 (India)",12.9693524,77.7006637,,2024-02-27 10:05:46+00:00,closed,,construction | ORR East 2 | karthiknagara towards [PERSON] and [PERSON] towards [LOCATION] traffic movement will be slow due to [LOCATION] station piller work
FKID002039,ನಮಸ್ತೆ ಸರ್ ಒಳಚರಂಡಿ ಕಾಮಗಾರಿ ಮಾಡುವುದರಿಂದ ರೋಡನ್ನು ಕ್ಲೋಸ್ [LOCATION],construction,Non-corridor,Low,True,"Hasya Chakravarti Narasimha Raju Road, Sri Vasavi Garden, Mahalakshmi Layout, Bengaluru, Karnataka. Pin-560086 (India)",13.0113867,77.54519,,2024-03-18 01:15:46+00:00,closed,,construction | Non-corridor | ನಮಸ್ತೆ ಸರ್ ಒಳಚರಂಡಿ ಕಾಮಗಾರಿ ಮಾಡುವುದರಿಂದ ರೋಡನ್ನು ಕ್ಲೋಸ್ [LOCATION]
FKID002051,Road Restriction for PM Visit,vip_movement,Non-corridor,Low,True,"Anchepalya, Madhavara, Chikkabidarakallu, Bangalore North, Bengaluru Urban, Karnataka, 560073, India",13.05688083,77.47401009,2024-03-17 22:05:46+00:00,,closed,,vip_movement | Non-corridor | Road Restriction for PM Visit
FKID002054,Road Restriction for PM Visit,vip_movement,Non-corridor,Low,True,"Manjunath Nagar, Anchepalya, Madhavara, Chikkabidarakallu, Bangalore North, Bengaluru Urban, Karnataka, 560073, India",13.05526533,77.47825398,2024-03-17 22:05:46+00:00,,closed,,vip_movement | Non-corridor | Road Restriction for PM Visit
FKID002057,Road Restriction for PM Visit,vip_movement,Mysore Road,High,True,"Bangalore-Mysore Road, Hemmigepura, Bengaluru West City Corporation, Bengaluru, Bangalore South, Bengaluru Urban, Karnataka, 560060, India",12.90123143,77.46735197,2024-03-17 22:05:46+00:00,,closed,,vip_movement | Mysore Road | Road Restriction for PM Visit
FKID002059,White tapping progress in hennur bagalur main road sir,construction,Non-corridor,Low,False,"Hennur Main Road, Salarpuria Sattva Gold Summit, Kuvempu Layout, Visthar, Bengaluru, Karnataka. Pin-560077 (India)",13.0670028,77.6517305,,2024-02-28 06:34:46+00:00,closed,,construction | Non-corridor | White tapping progress in hennur bagalur main road sir
FKID002071,krisht prossetion,procession,Mysore Road,High,False,"Albert Victor Road, Sirsi Circle, Chamarajpet, Bengaluru, Karnataka. Pin-560018 (India)",12.9603835,77.5627726,,2024-03-18 09:44:46+00:00,closed,,procession | Mysore Road | krisht prossetion
FKID002092,ಪ್ರವೇಟ್ ಪ್ರಾಪರ್ಟಿಯಲ್ಲಿರುವ ಹಳೆ ಮರದ  ನಾಲ್ಕು ರೆಂಬೆಗಳನ್ನು ಅರಣ್ಯ ಇಲಾಖೆಯಿಂದ ಅನುಮತಿ ಪಡೆದು ಕಟ್ ಮಾಡಿ ತೆರವು ಮಾಡಲಾಗಿರುತ್ತದೆ. ಸಂಚಾರಕ್ಕೆ ಯಾವುದೇ ತೊಂದರೆ ಇರುವುದಿಲ್ಲ,construction,Old Madras Road,High,False,"Brigade Road, Brigade Road Junction, Ashok Nagar, Bengaluru, Karnataka. Pin-560025 (India)",12.9721302,77.6070396,2024-02-27 19:06:46+00:00,2024-02-27 20:40:46+00:00,closed,94.0,construction | Old Madras Road | ಪ್ರವೇಟ್ ಪ್ರಾಪರ್ಟಿಯಲ್ಲಿರುವ ಹಳೆ ಮರದ  ನಾಲ್ಕು ರೆಂಬೆಗಳನ್ನು ಅರಣ್ಯ ಇಲಾಖೆಯಿಂದ ಅನುಮತಿ ಪಡೆದು ಕಟ್ ಮಾಡಿ ತೆರವು ಮಾಡಲಾಗಿರುತ್ತದೆ. ಸಂಚಾರಕ್ಕೆ ಯಾವುದೇ ತೊಂದರೆ ಇರುವುದಿಲ್ಲ
FKID002097,karthiknagara towards [LOCATION] and karthiknagara towards marathhalli traffic movement will be slow due to [LOCATION] station piller work,construction,ORR East 2,High,False,"Outer Ring Road, Karthik Nagar, Marathahalli, Bengaluru, Karnataka. Pin-560037 (India)",12.9694819,77.7006441,,2024-02-28 10:05:46+00:00,closed,,construction | ORR East 2 | karthiknagara towards [LOCATION] and karthiknagara towards marathhalli traffic movement will be slow due to [LOCATION] station piller work
FKID002103,tavarekere [PERSON] wood,construction,Non-corridor,Low,False,"Thavarekere Main Road, Brindavan Nagar, Sadduguntepalya, Bengaluru, Karnataka. Pin-560029 (India)",12.9255592,77.6087154,,2024-02-27 20:52:46+00:00,closed,,construction | Non-corridor | tavarekere [PERSON] wood
FKID002105,karthiknagara towards [LOCATION] and karthiknagara towards marathhalli traffic movement will be slow due to [LOCATION] station piller work,construction,ORR East 2,High,False,"Outer Ring Road, Karthik Nagar, Marathahalli, Bengaluru, Karnataka. Pin-560037 (India)",12.9695714,77.700534,,2024-03-19 10:05:46+00:00,closed,,construction | ORR East 2 | karthiknagara towards [LOCATION] and karthiknagara towards marathhalli traffic movement will be slow due to [LOCATION] station piller work
FKID002110,village festival,procession,Non-corridor,Low,False,"Panathur Main Road, Vandana Tejyesh, Varthur Hobli, Panathur, Bengaluru, Karnataka. Pin-560087 (India)",12.9360068,77.7070682,,2024-02-27 12:56:46+00:00,closed,,procession | Non-corridor | village festival
FKID002168,karthiknagara towards [PERSON] and karthiknagara towards mahadevpura traffic movement will be slow due to [LOCATION] station piller work,construction,ORR East 2,High,False,"Outer Ring Road, Karthik Nagar, Marathahalli, Bengaluru, Karnataka. Pin-560037 (India)",12.9696034,77.7005489,,2024-02-29 10:05:46+00:00,closed,,construction | ORR East 2 | karthiknagara towards [PERSON] and karthiknagara towards mahadevpura traffic movement will be slow due to [LOCATION] station piller work
FKID002192,snj traffic ps limits,construction,ORR North 2,High,False,"2nd Main Road, Abdul Patel Syed Layout, Bhoopasandra, RMV Stage 2, Bengaluru, Karnataka. Pin-560094 (India)",13.0443032,77.5819616,,2024-03-20 05:35:46+00:00,closed,,construction | ORR North 2 | snj traffic ps limits
FKID002212,bilekahalli junction towards HSBC,procession,Bannerghata Road,High,False,"Bannerghatta Main Road, Bilekahalli Junction, Bilekahalli, Bengaluru, Karnataka. Pin-560076 (India)",12.9019622,77.6011975,,2024-02-29 05:01:46+00:00,closed,,procession | Bannerghata Road | bilekahalli junction towards HSBC
FKID002224,Bridge work under prograss,construction,Non-corridor,Low,True,"ಟ್ಯಾಂಕ್ ಬಂಡ್ ರಸ್ತೆ, ವಿಶ್ವಮಾನವ ಕುವೆಂಪು ವಾರ್ಡ್, ಬೆಂಗಳೂರು ದಕ್ಷಿಣ ನಗರ ನಿಗಮ, Bengaluru, ಬೆಂಗಳೂರು ದಕ್ಷಿಣ, ಬೆಂಗಳೂರು ನಗರ, Karnataka, 560068, India",12.91427815,77.61741195,,2024-03-19 12:05:46+00:00,closed,,construction | Non-corridor | Bridge work under prograss
FKID002225,ಮಾರತಹಳ್ಳಿ ಬ್ರಿಜ್ ಲ್ಲಿ  ಬಿಎಂಆರ್‌ಪಿಎಲ್ ಮೆಟ್ರೋ ವರ್ಕ್ ನಡೆಯುತ್ತಿರುತ್ತದೆ. ಹಾಗಾಗಿ ಸರ್ವಿಸ್ ರಸ್ತೆಯನ್ನು . ಮುಚ್ಚಲಾಗಿರುತ್ತದೆ.,construction,Varthur Road,High,True,"HAL Airport Road, Marathahalli, Bengaluru, Karnataka. Pin-560037 (India)",12.9567539,77.7013119,,2024-03-19 17:01:46+00:00,closed,,construction | Varthur Road | ಮಾರತಹಳ್ಳಿ ಬ್ರಿಜ್ ಲ್ಲಿ  ಬಿಎಂಆರ್‌ಪಿಎಲ್ ಮೆಟ್ರೋ ವರ್ಕ್ ನಡೆಯುತ್ತಿರುತ್ತದೆ. ಹಾಗಾಗಿ ಸರ್ವಿಸ್ ರಸ್ತೆಯನ್ನು . ಮುಚ್ಚಲಾಗಿರುತ್ತದೆ.
FKID002245,karthiknagara towards [LOCATION] and karthiknagara towards marathhalli traffic movement will be slow due to [LOCATION] station piller work,construction,ORR East 2,High,False,"Outer Ring Road, Karthik Nagar, Marathahalli, Bengaluru, Karnataka. Pin-560037 (India)",12.9695804,77.7005848,,2024-03-20 10:05:46+00:00,closed,,construction | ORR East 2 | karthiknagara towards [LOCATION] and karthiknagara towards marathhalli traffic movement will be slow due to [LOCATION] station piller work
FKID002254,[PERSON],procession,Non-corridor,Low,True,"Basavanapura Road, Sri Manjunatha Layout, KR Puram, Bengaluru, Karnataka. Pin-560049 (India)",13.0162183,77.7092396,,2024-03-19 21:57:46+00:00,closed,,procession | Non-corridor | [PERSON]
FKID002320,[PERSON] staion piller construction work progress towords [PERSON] [LOCATION] is slow movement Regarding traffic is [LOCATION],construction,ORR East 2,High,False,"Outer Ring Road, Karthik Nagar, Marathahalli, Bengaluru, Karnataka. Pin-560037 (India)",12.9695205,77.7005879,,2024-03-08 02:53:46+00:00,closed,,construction | ORR East 2 | [PERSON] staion piller construction work progress towords [PERSON] [LOCATION] is slow movement Regarding traffic is [LOCATION]
FKID002337,Mixture Lorry Tyre Puncture,construction,Mysore Road,High,False,"Mission Road, ETO Junction, Kalasipalyam, Bengaluru, Karnataka. Pin-560027 (India)",12.964045,77.5882867,,2024-03-02 05:05:46+00:00,closed,,construction | Mysore Road | Mixture Lorry Tyre Puncture
FKID002353,"BWSSB Work, Whaitfield Towards [PERSON]",construction,Non-corridor,Low,False,"Whitefield Main Road, Carmel Heights, Whitefield, Bengaluru, Karnataka. Pin-560066 (India)",12.9608586,77.7477127,,2024-03-20 17:05:46+00:00,closed,,"construction | Non-corridor | BWSSB Work, Whaitfield Towards [PERSON]"
FKID002354,White Topping Phase-3 at [LOCATION],construction,Non-corridor,Low,True,"Race Course Road, ಫೇರ್ ಫೀಲ್ಡ್ ಲೇಔಟ್, ಹೈ ಗ್ರೌಂಡ್ಸ್, ಸಂಪಂಗಿರಾಮ ನಗರ, ಬೆಂಗಳೂರು ಮಧ್ಯ ನಗರ ನಿಗಮ, Bengaluru, ಬೆಂಗಳೂರು ಉತ್ತರ, ಬೆಂಗಳೂರು ನಗರ, Karnataka, 560001, India",12.98425609,77.58240759,2024-03-20 12:05:46+00:00,2024-05-20 12:05:46+00:00,active,87840.0,construction | Non-corridor | White Topping Phase-3 at [LOCATION]
FKID002380,karthiknagara towards [LOCATION] and karthiknagara towards marathhalli traffic movement will be slow due to [LOCATION] station piller work,construction,ORR East 2,High,False,"Outer Ring Road, LRDE Employee Housing Colony, Karthik Nagar, Marathahalli, Bengaluru, Karnataka. Pin-560037 (India)",12.969728,77.7007284,,2024-03-21 10:05:46+00:00,closed,,construction | ORR East 2 | karthiknagara towards [LOCATION] and karthiknagara towards marathhalli traffic movement will be slow due to [LOCATION] station piller work
FKID002408,local village festival,public_event,Old Airport Road,High,False,"HAL Airport Road, Manjunatha Nagar, Marathahalli, Bengaluru, Karnataka. Pin-560037 (India)",12.9561458,77.6939553,,2024-03-03 20:05:46+00:00,closed,,public_event | Old Airport Road | local village festival
FKID002409,local village festival,public_event,Old Airport Road,High,False,"HAL Airport Road, Manjunatha Nagar, Marathahalli, Bengaluru, Karnataka. Pin-560037 (India)",12.956161,77.6940295,,2024-03-03 20:05:46+00:00,closed,,public_event | Old Airport Road | local village festival
FKID002410,due to local village festival,public_event,Old Airport Road,High,False,"HAL Airport Road, Manjunatha Nagar, Marathahalli, Bengaluru, Karnataka. Pin-560037 (India)",12.9562766,77.6940173,,2024-03-03 20:05:46+00:00,closed,,public_event | Old Airport Road | due to local village festival
FKID002411,local village festival,public_event,Old Airport Road,High,False,"2nd Main Road, Manjunatha Nagar, Marathahalli, Bengaluru, Karnataka. Pin-560037 (India)",12.9564768,77.6941351,,2024-03-03 20:05:46+00:00,closed,,public_event | Old Airport Road | local village festival
FKID002416,local village festival,public_event,Old Airport Road,High,False,"HAL Airport Road, Manjunatha Nagar, Marathahalli, Bengaluru, Karnataka. Pin-560037 (India)",12.9561595,77.6939741,,2024-03-03 20:05:46+00:00,closed,,public_event | Old Airport Road | local village festival
FKID002440,rathostava,public_event,Non-corridor,Low,False,"Siddavanahalli Krishna Sharma Road, Malleshwaram, Bengaluru, Karnataka. Pin-560003 (India)",13.0007295,77.5693615,,2024-03-04 08:01:46+00:00,closed,,public_event | Non-corridor | rathostava
FKID002445,"Vehicle Diversion at [LOCATION] Road(13.027712, 77.535668)",public_event,Non-corridor,Low,False,"ಹೊರ ವರ್ತುಲ ರಸ್ತೆ, ಗೊರಗುಂಟೆ ಪಾಳ್ಯ, ಪೀಣ್ಯ, ಬೆಂಗಳೂರು ಪಶ್ಚಿಮ ನಗರ ನಿಗಮ, Bengaluru, ಬೆಂಗಳೂರು ಉತ್ತರ, ಬೆಂಗಳೂರು ನಗರ, Karnataka, 560022, India",13.02668698,77.53509982,2024-03-19 12:05:46+00:00,2024-03-31 11:35:46+00:00,closed,17250.0,"public_event | Non-corridor | Vehicle Diversion at [LOCATION] Road(13.027712, 77.535668)"
FKID002447,varthur college towards madaranagar,construction,Non-corridor,Low,False,"Muthsandra Main Road, KSRTC Travel House Junction, Varthur Marattahalli, Bengaluru, Karnataka. Pin-560087 (India)",12.9424427,77.7473603,,2024-03-23 04:40:46+00:00,closed,,construction | Non-corridor | varthur college towards madaranagar
FKID002463,karthiknagara towards [PERSON] and karthiknagara towards mahadevpura traffic movement will be slow due to [LOCATION] station piller work,construction,ORR East 2,High,False,"Outer Ring Road, Karthik Nagar, Marathahalli, Bengaluru, Karnataka. Pin-560037 (India)",12.9694437,77.7006895,,2024-03-05 10:05:46+00:00,closed,,construction | ORR East 2 | karthiknagara towards [PERSON] and karthiknagara towards mahadevpura traffic movement will be slow due to [LOCATION] station piller work
FKID002483,TCS Marathon 2026,public_event,Old Madras Road,High,True,"ಕಬ್ಬನ್ ರಸ್ತೆ, ಅಶೋಕ ನಗರ, ಅಶೋಕನಗರ, ಬೆಂಗಳೂರು ಮಧ್ಯ ನಗರ ನಿಗಮ, Bengaluru, ಬೆಂಗಳೂರು ಉತ್ತರ, ಬೆಂಗಳೂರು ನಗರ, Karnataka, 560025, India",12.9757277,77.61296523,2024-03-03 17:05:46+00:00,2024-03-03 23:05:46+00:00,closed,360.0,public_event | Old Madras Road | TCS Marathon 2026
FKID002486,White Topping Phase 2 at [LOCATION],construction,Non-corridor,Low,True,"Bangalore Race Course, Race Course Road, Fair Field Layout, High Grounds, Sampangirama Nagar, Bengaluru Central City Corporation, Bengaluru, Bangalore North, Bengaluru Urban, Karnataka, 560001, India",12.98324679,77.57715769,2024-01-19 12:05:46+00:00,2024-03-21 11:35:46+00:00,closed,89250.0,construction | Non-corridor | White Topping Phase 2 at [LOCATION]
FKID002495,varthur ps towards balegere road,construction,Non-corridor,Low,False,"27th Cross Road, BMG Layout, Varthur Marattahalli, Bengaluru, Karnataka. Pin-560087 (India)",12.9382954,77.7454769,,2024-03-21 20:35:46+00:00,closed,,construction | Non-corridor | varthur ps towards balegere road
FKID002533,bbmp wrk sir,construction,Non-corridor,Low,False,"1st Main Road, Prestige Pine Wood, Jakkasandra Extension, Koramangala, Bengaluru, Karnataka. Pin-560034 (India)",12.931129,77.6339107,,2024-03-23 22:48:46+00:00,closed,,construction | Non-corridor | bbmp wrk sir
FKID002561,karthiknagara towards [LOCATION] and karthiknagara towards marathhalli traffic movement will be slow due to [LOCATION] station piller work,construction,ORR East 2,High,False,"Outer Ring Road, Karthik Nagar, Marathahalli, Bengaluru, Karnataka. Pin-560037 (India)",12.9695083,77.7005878,,2024-03-06 10:05:46+00:00,closed,,construction | ORR East 2 | karthiknagara towards [LOCATION] and karthiknagara towards marathhalli traffic movement will be slow due to [LOCATION] station piller work
FKID002581,karthiknagara towards [LOCATION] and karthiknagara towards marathhalli traffic movement will be slow due to [LOCATION] station piller work,construction,ORR East 2,High,False,"Outer Ring Road, Karthik Nagar, Marathahalli, Bengaluru, Karnataka. Pin-560037 (India)",12.9694371,77.7006242,,2024-03-22 10:05:46+00:00,closed,,construction | ORR East 2 | karthiknagara towards [LOCATION] and karthiknagara towards marathhalli traffic movement will be slow due to [LOCATION] station piller work
FKID002608,[PERSON],vehicle_breakdown,Non-corridor,Low,False,"Madavara Main Road, Madavara, Bengaluru, Karnataka. Pin-560073 (India)",13.0551266,77.4739854,,2024-03-06 03:59:46+00:00,closed,,vehicle_breakdown | Non-corridor | [PERSON]
FKID002610,Karthik nagar SNC METRO PILLOR CONCRETE WORK,construction,ORR East 2,High,False,"Outer Ring Road, Karthik Nagar, Marathahalli, Bengaluru, Karnataka. Pin-560037 (India)",12.9696868,77.7004176,,2024-03-06 02:25:46+00:00,closed,,construction | ORR East 2 | Karthik nagar SNC METRO PILLOR CONCRETE WORK
FKID002656,[LOCATION] work,construction,Non-corridor,Low,False,"1st Cross Road, Sultanpalya, Bengaluru, Karnataka. Pin-560032 (India)",13.0225146,77.6018347,,2024-03-23 05:06:46+00:00,closed,,construction | Non-corridor | [LOCATION] work
FKID002659,karthiknagara towards [LOCATION] and karthiknagara towards marathhalli traffic movement will be slow due to [LOCATION] station piller work,construction,ORR East 2,High,False,"Outer Ring Road, Karthik Nagar, Marathahalli, Bengaluru, Karnataka. Pin-560037 (India)",12.9694761,77.7006303,,2024-03-07 10:05:46+00:00,closed,,construction | ORR East 2 | karthiknagara towards [LOCATION] and karthiknagara towards marathhalli traffic movement will be slow due to [LOCATION] station piller work
FKID002665,bridge Work and CC road work under progress,construction,Non-corridor,Low,True,"30th Main Road, Someshwara Colony, BTM Layout Stage 2, Bengaluru, Karnataka. Pin-560076 (India)",12.9160554,77.6168548,,2024-04-23 00:05:46+00:00,closed,,construction | Non-corridor | bridge Work and CC road work under progress
FKID002672,ಬಿಬಿಎಂಪಿ ಕಾಮಗಾರಿ ಪ್ರಗತಿಯಲ್ಲಿ ಇದೆ   ಟ್ರಾಫಿಕ್ ಸಮಸ್ಯ ಇಲ್ಲಾ,construction,Non-corridor,Low,False,"Magrath Road, Garuda Mall, Ashok Nagar, Bengaluru, Karnataka. Pin-560025 (India)",12.970333,77.6100462,,2024-03-06 21:52:46+00:00,closed,,construction | Non-corridor | ಬಿಬಿಎಂಪಿ ಕಾಮಗಾರಿ ಪ್ರಗತಿಯಲ್ಲಿ ಇದೆ   ಟ್ರಾಫಿಕ್ ಸಮಸ್ಯ ಇಲ್ಲಾ
FKID002673,"kptcl work progressing at varturu college, varturu ps vehicles slow movement.",construction,Non-corridor,Low,False,"Muthsandra Main Road, KSRTC Travel House Junction, Varthur Marattahalli, Bengaluru, Karnataka. Pin-560087 (India)",12.9424506,77.7471773,,2024-03-06 23:08:46+00:00,closed,,"construction | Non-corridor | kptcl work progressing at varturu college, varturu ps vehicles slow movement."
FKID002693,"KPTCL Work Varthur College junction, [LOCATION] road",construction,Non-corridor,Low,False,"Muthsandra Main Road, KSRTC Travel House Junction, Varthur Marattahalli, Bengaluru, Karnataka. Pin-560087 (India)",12.9424889,77.7474591,,2024-03-23 06:05:46+00:00,closed,,"construction | Non-corridor | KPTCL Work Varthur College junction, [LOCATION] road"
FKID002805,[PERSON] station work sir [PERSON] towards [PERSON] sir,construction,ORR East 2,High,False,"Outer Ring Road, Karthik Nagar, Marathahalli, Bengaluru, Karnataka. Pin-560037 (India)",12.9694267,77.7006781,,2024-03-24 06:35:46+00:00,closed,,construction | ORR East 2 | [PERSON] station work sir [PERSON] towards [PERSON] sir
FKID002817,slow movements sir,tree_fall,ORR West 1,High,False,"1st Cross Road, Block 5 Phase 3, Banashankari Stage 3, Bengaluru, Karnataka. Pin-560085 (India)",12.9238644,77.5532613,,2024-03-07 06:02:46+00:00,closed,,tree_fall | ORR West 1 | slow movements sir
FKID002883,Haz bhavan yatre,public_event,Hennur Main Road,High,False,"Thanisandra Main Road, Tirumanahalli, Bengaluru, Karnataka. Pin-560064 (India)",13.0891144,77.63546131,,2024-03-29 01:01:11+00:00,closed,,public_event | Hennur Main Road | Haz bhavan yatre
FKID003119,[LOCATION] center median work is going on karthiknagara towards marathhalli,construction,ORR East 2,High,False,"Outer Ring Road, LRDE Employee Housing Colony, Karthik Nagar, Marathahalli, Bengaluru, Karnataka. Pin-560037 (India)",12.9687003,77.7013565,,2024-03-27 09:05:46+00:00,closed,,construction | ORR East 2 | [LOCATION] center median work is going on karthiknagara towards marathhalli
FKID003127,without helmer,public_event,Non-corridor,Low,True,"Unnamed Road, Pillaganahalli, Bengaluru, Karnataka. Pin-560083 (India)",12.8441817,77.5766517,,2024-03-27 10:15:46+00:00,closed,,public_event | Non-corridor | without helmer
FKID003130,Hospital road white tapping,construction,Non-corridor,Low,True,"Hospital Road, Balepet, Chikkapete, Chickpete, Bengaluru Central City Corporation, Bengaluru, Bangalore North, Bengaluru Urban, Karnataka, 560053, India",12.97326156,77.57768172,2024-02-15 12:05:46+00:00,2024-03-27 11:35:46+00:00,closed,59010.0,construction | Non-corridor | Hospital road white tapping
FKID003133,[LOCATION] center median work is going on at karthiknagara so that traffic movement will be slow from karthiknagara towards [LOCATION] and from karthiknagara towards marathhalli,construction,ORR East 2,High,False,"Outer Ring Road, LRDE Employee Housing Colony, Karthik Nagar, Marathahalli, Bengaluru, Karnataka. Pin-560037 (India)",12.9687789,77.7015288,,2024-03-28 09:05:46+00:00,closed,,construction | ORR East 2 | [LOCATION] center median work is going on at karthiknagara so that traffic movement will be slow from karthiknagara towards [LOCATION] and from karthiknagara towards marathhalli
FKID003153,traffic slow movement from [LOCATION] towards dairy due to [PERSON] festival,procession,Non-corridor,Low,False,"Hosur Road, Prestige Technopolis, Dairy Colony, Adugodi, Bengaluru, Karnataka. Pin-560029 (India)",12.9364416,77.6072177,,2024-03-28 06:05:46+00:00,closed,,procession | Non-corridor | traffic slow movement from [LOCATION] towards dairy due to [PERSON] festival
FKID003180,[PERSON] pallakki procession from [LOCATION] 8th cross towards sampige road 18th cross,procession,Non-corridor,Low,True,"8th Cross Road, RR Palace, Malleshwaram, Bengaluru, Karnataka. Pin-560003 (India)",12.9990834,77.5710764,,2024-03-28 15:10:46+00:00,closed,,procession | Non-corridor | [PERSON] pallakki procession from [LOCATION] 8th cross towards sampige road 18th cross
FKID003302,[LOCATION] construction,construction,ORR East 2,High,False,"Outer Ring Road, LRDE Employee Housing Colony, Karthik Nagar, Marathahalli, Bengaluru, Karnataka. Pin-560037 (India)",12.96923191,77.70098502,,2024-03-29 20:50:39+00:00,closed,,construction | ORR East 2 | [LOCATION] construction
FKID003312,karthiknagara towards [LOCATION] and karthiknagara towards marathhalli traffic movement will be slow due to [LOCATION] station work,construction,ORR East 2,High,False,"Outer Ring Road, LRDE Employee Housing Colony, Karthik Nagar, Marathahalli, Bengaluru, Karnataka. Pin-560037 (India)",12.969466,77.7010444,,2024-03-30 09:05:46+00:00,closed,,construction | ORR East 2 | karthiknagara towards [LOCATION] and karthiknagara towards marathhalli traffic movement will be slow due to [LOCATION] station work
FKID003349,ಮರ ಬಿದ್ದಿದೆ ಸರ್,construction,West of Chord Road,High,False,"17th Cross Road, Govindaraja Nagara Circle, Vijaya Nagar, Bengaluru, Karnataka. Pin-560040 (India)",12.9725245,77.5378415,,2024-03-30 00:18:46+00:00,closed,,construction | West of Chord Road | ಮರ ಬಿದ್ದಿದೆ ಸರ್
FKID003404,[LOCATION] station piller work,construction,ORR East 2,High,False,"Outer Ring Road, LRDE Employee Housing Colony, Karthik Nagar, Marathahalli, Bengaluru, Karnataka. Pin-560037 (India)",12.9695964,77.7007931,,2024-03-31 09:05:46+00:00,closed,,construction | ORR East 2 | [LOCATION] station piller work
FKID003465,drainage work progress sir,construction,Non-corridor,Low,True,"Kitthur Rani Chennamma Road, Kalathur Layout, Ramchandrapura, Bengaluru, Karnataka. Pin-560013 (India)",13.0581665,77.5462351,,2024-03-31 17:05:46+00:00,closed,,construction | Non-corridor | drainage work progress sir
FKID003510,Sir [PERSON] service road ನಲ್ಲಿ sterling [LOCATION] ಎದುರು ಮೋರಿ ಕ್ಲೀನ್ ಮಾಡಲು ಗ್ರಿಲ್ ತೆಗೆದು ಮಿಡಿಯನ್ ಹಾಕಿರುತ್ತಾರೆ ಸರ್ ಸರ್ವಿಸ್ ರಸ್ತೆಯ ಟ್ರಾಫಿಕ್ ಸ್ವಲ್ಪ ಸ್ಲೋ ಇದೇ ಸರ್...,construction,ORR East 1,High,False,"Outer Ring Road, Sterling Ascentia, Kariyammana Agrahara, Bengaluru, Karnataka. Pin-560103 (India)",12.928608,77.6816848,,2024-04-03 00:05:46+00:00,closed,,construction | ORR East 1 | Sir [PERSON] service road ನಲ್ಲಿ sterling [LOCATION] ಎದುರು ಮೋರಿ ಕ್ಲೀನ್ ಮಾಡಲು ಗ್ರಿಲ್ ತೆಗೆದು ಮಿಡಿಯನ್ ಹಾಕಿರುತ್ತಾರೆ ಸರ್ ಸರ್ವಿಸ್ ರಸ್ತೆಯ ಟ್ರಾಫಿಕ್ ಸ್ವಲ್ಪ ಸ್ಲೋ ಇದೇ ಸರ್...
FKID003704,[PERSON] festival at [LOCATION] road BGS Flyover,public_event,Mysore Road,High,True,"Sultan Road, Cottonpete, Cheluvadi Palya, Bengaluru Central City Corporation, Bengaluru, Bangalore North, Bengaluru Urban, Karnataka, 560053, India",12.96417661,77.56987194,2024-04-04 20:05:46+00:00,2024-04-05 00:05:46+00:00,closed,240.0,public_event | Mysore Road | [PERSON] festival at [LOCATION] road BGS Flyover
FKID003706,Culvert Work By GBA,construction,CBD 1,High,True,"Rakhra Sports, 22, Veerapillai Street, Commercial Street Market, Shivajinagar, Bengaluru Central City Corporation, Bengaluru, Bangalore North, Bengaluru Urban, Karnataka, 560042, India",12.98306392,77.61063549,2024-03-31 12:05:46+00:00,2024-05-30 11:35:46+00:00,active,86370.0,construction | CBD 1 | Culvert Work By GBA
FKID003707,Culvert Work By GBA road closure,construction,Old Madras Road,High,True,"Kamaraja Road Circle, Cubbon Road, Ashok Nagar, Ashokanagar, Bengaluru Central City Corporation, Bengaluru, Bangalore North, Bengaluru Urban, Karnataka, 560001, India",12.97736496,77.60867728,2024-03-31 12:05:46+00:00,2024-05-30 10:35:46+00:00,active,86310.0,construction | Old Madras Road | Culvert Work By GBA road closure
FKID003755,BAKRID BANDOBASTH,public_event,Non-corridor,Low,True,"Doddi Circle, Pottery Road, Sagayapura, Richards Town, Sagayapuram, Bengaluru North City Corporation, Bengaluru, Bangalore North, Bengaluru Urban, Karnataka, 560005, India",13.00200051,77.61210604,2024-04-04 17:05:46+00:00,2024-04-05 02:05:46+00:00,closed,540.0,public_event | Non-corridor | BAKRID BANDOBASTH
FKID003758,"Special prayer on the
occasion of [PERSON]
festival",public_event,Non-corridor,Low,True,"A.K.S. Convention Hall, 70, Saint John's Church Road, Bharathi Nagar, Bengaluru Central City Corporation, Bengaluru, Bangalore North, Bengaluru Urban, Karnataka, 560001, India",12.99351325,77.60736145,2024-04-04 19:05:46+00:00,2024-04-05 00:05:46+00:00,closed,300.0,"public_event | Non-corridor | Special prayer on the
occasion of [PERSON]
festival"
FKID003763,[PERSON] prayer at [PERSON],public_event,ORR West 1,High,True,"Sarakki Junction, Outer Ring Road, Kumaraswamy Layout 1st Stage, Kane Muneshwara Ward, Bengaluru South City Corporation, Bengaluru, Bangalore South, Bengaluru Urban, Karnataka, 560078, India",12.90649007,77.57322032,2024-04-04 19:05:46+00:00,2024-04-04 23:05:46+00:00,closed,240.0,public_event | ORR West 1 | [PERSON] prayer at [PERSON]
FKID003859,[LOCATION] station tower crane work and center median work is going on at [LOCATION] station so that traffic movement will be slow from karthiknagara towards [LOCATION] and from karthiknagara towards marathhalli,construction,ORR East 2,High,False,"Outer Ring Road, Karthik Nagar, Marathahalli, Bengaluru, Karnataka. Pin-560037 (India)",12.969424,77.7007903,,2024-04-06 09:05:46+00:00,closed,,construction | ORR East 2 | [LOCATION] station tower crane work and center median work is going on at [LOCATION] station so that traffic movement will be slow from karthiknagara towards [LOCATION] and from karthiknagara towards marathhalli
FKID004019,BWSSB work progress K R road towards D M junction traffic slow moment,construction,Non-corridor,Low,False,"Sri Nitturu Srinivasarao Road, Bharathi Nursing Home Junction, Jayanagar, Bengaluru, Karnataka. Pin-560004 (India)",12.9368449,77.5737802,,2024-04-06 19:01:46+00:00,closed,,construction | Non-corridor | BWSSB work progress K R road towards D M junction traffic slow moment
FKID004031,[LOCATION] center median work is going on at [LOCATION] station so that traffic movement will be slow from karthiknagara towards marathhalli and from karthiknagara towards [LOCATION],construction,ORR East 2,High,False,"Outer Ring Road, Karthik Nagar, Marathahalli, Bengaluru, Karnataka. Pin-560037 (India)",12.9696781,77.7005957,,2024-04-07 10:05:46+00:00,closed,,construction | ORR East 2 | [LOCATION] center median work is going on at [LOCATION] station so that traffic movement will be slow from karthiknagara towards marathhalli and from karthiknagara towards [LOCATION]
FKID004085,[LOCATION] work at [LOCATION],construction,Varthur Road,High,True,"Service Road, Marathahalli, Bengaluru East City Corporation, Bengaluru, Bangalore East, Bengaluru Urban, Karnataka, 560037, India",12.95691291,77.70135409,2024-04-07 11:05:46+00:00,2024-04-07 18:05:46+00:00,closed,420.0,construction | Varthur Road | [LOCATION] work at [LOCATION]
FKID004088,Culvert Drainage Work at Banasavadi Main road,construction,Non-corridor,Low,True,"೨ನೇ ಈ ಅಡ್ಡ ರಸ್ತೆ, Chikka Banasawadi, ಬೈಯಪ್ಪನಹಳ್ಳಿ, ಕಲ್ಯಾಣನಗರ, ಬೆಂಗಳೂರು ಉತ್ತರ ನಗರ ನಿಗಮ, Bengaluru, ಬೆಂಗಳೂರು ಪೂರ್ವ, ಬೆಂಗಳೂರು ನಗರ, Karnataka, 560043, India",13.01136787,77.64639437,2024-01-07 12:05:46+00:00,2024-04-07 11:35:46+00:00,closed,131010.0,construction | Non-corridor | Culvert Drainage Work at Banasavadi Main road
FKID004092,ವಾಕ್ ವಿತ್ ರಾಮಾಜ ನಡಿಗೆ ಕಾರ್ಯಕ್ರಮ ಮಲ್ಲೇಶ್ವರಂ ಸರ್ಕಲ್ ನಿಂದ ಸರ್ಕಲ್ ಮಾರಮ್ಮ ಮಾರ್ಗೋಸ್ ರಸ್ತೆ 11ನೇ ಮೆರವಣಿಗೆ ನಡೆಯುತ್ತದೆ ಸರ್ ಸಂಚಾರಕ್ಕೆ ಯಾವುದೇ ರೀತಿ ತೊಂದರೆಯುವುದಿಲ್ಲ,procession,Non-corridor,Low,False,"Sri Venkataranga Ayangar Road, RR Palace, Malleshwaram, Bengaluru, Karnataka. Pin-560003 (India)",12.99838,77.5713867,,2024-04-07 22:05:46+00:00,closed,,procession | Non-corridor | ವಾಕ್ ವಿತ್ ರಾಮಾಜ ನಡಿಗೆ ಕಾರ್ಯಕ್ರಮ ಮಲ್ಲೇಶ್ವರಂ ಸರ್ಕಲ್ ನಿಂದ ಸರ್ಕಲ್ ಮಾರಮ್ಮ ಮಾರ್ಗೋಸ್ ರಸ್ತೆ 11ನೇ ಮೆರವಣಿಗೆ ನಡೆಯುತ್ತದೆ ಸರ್ ಸಂಚಾರಕ್ಕೆ ಯಾವುದೇ ರೀತಿ ತೊಂದರೆಯುವುದಿಲ್ಲ
FKID004122,White topping work,construction,Mysore Road,High,True,"K.R Market, Bengaluru Central City Corporation, Bengaluru, Bangalore North, Bengaluru Urban, Karnataka, 560018, India",12.96396195,77.56960303,2024-02-13 12:05:46+00:00,2024-04-08 11:35:46+00:00,closed,79170.0,construction | Mysore Road | White topping work
FKID004165,Protest,protest,Non-corridor,Low,False,"Hemmigepura, Bengaluru West City Corporation, Bengaluru, Bangalore South, Bengaluru Urban, Karnataka, 560060, India",12.88122222,77.47910378,,2023-12-02 05:05:46+00:00,closed,,protest | Non-corridor | Protest
FKID004194,ನಮಸ್ತೆ ಸರ್ ಬೇಗೂರು ಗಾಳಮ್ಮ ಸರ್ಕಲ್ ನಿಂದ ಚಿಕ್ಕನಹಳ್ಳಿಯ ವರೆಗೆ ಬಿ ಎಂ ಆರ್ ಸಿ ಎಲ್ [PERSON] ಅಳವಡಿಕೆ ಕಾಮಗಾರಿ ನಡೆಯುತ್ತಿದ್ದು  ಸಂಚಾರವು ನಿಧಾನಗತಿಯಲ್ಲಿ ಸಾಗುತ್ತಿರುತ್ತದೆ ಸರ್,construction,Non-corridor,Low,False,"Unnamed Road, Begur Chikkanahalli, Bengaluru, Karnataka. Pin-562149 (India)",13.183545,77.6801783,2023-12-27 04:05:46+00:00,2023-12-30 06:05:46+00:00,closed,4440.0,construction | Non-corridor | ನಮಸ್ತೆ ಸರ್ ಬೇಗೂರು ಗಾಳಮ್ಮ ಸರ್ಕಲ್ ನಿಂದ ಚಿಕ್ಕನಹಳ್ಳಿಯ ವರೆಗೆ ಬಿ ಎಂ ಆರ್ ಸಿ ಎಲ್ [PERSON] ಅಳವಡಿಕೆ ಕಾಮಗಾರಿ ನಡೆಯುತ್ತಿದ್ದು  ಸಂಚಾರವು ನಿಧಾನಗತಿಯಲ್ಲಿ ಸಾಗುತ್ತಿರುತ್ತದೆ ಸರ್
FKID004216,ನಮಸ್ತೆ ಸರ್ . ಬೇಗೂರು ಗೇಟ್ನಿಂದ ಮೈಲನಹಳ್ಳಿ ವರೆಗೆ [PERSON] ಅಳವಡಿಕೆ ಕಾಮಗಾರಿ ಪ್ರಗತಿಯಲ್ಲಿದ್ದು ವಾಹನಗಳ ಸಂಚಾರವು ನಿಧಾನಗತಿಯಲ್ಲಿರುತ್ತದೆ ಸರ್,construction,Non-corridor,Low,False,"Unnamed Road, Begur Chikkanahalli, Bengaluru, Karnataka. Pin-562149 (India)",13.1835417,77.6807133,2024-01-05 01:20:46+00:00,2024-01-09 06:05:46+00:00,closed,6045.0,construction | Non-corridor | ನಮಸ್ತೆ ಸರ್ . ಬೇಗೂರು ಗೇಟ್ನಿಂದ ಮೈಲನಹಳ್ಳಿ ವರೆಗೆ [PERSON] ಅಳವಡಿಕೆ ಕಾಮಗಾರಿ ಪ್ರಗತಿಯಲ್ಲಿದ್ದು ವಾಹನಗಳ ಸಂಚಾರವು ನಿಧಾನಗತಿಯಲ್ಲಿರುತ್ತದೆ ಸರ್
FKID004218,[LOCATION] towards [LOCATION] and karthiknagara towards marathhalli traffic movement will be slow due to metrostation work,construction,ORR East 2,High,False,"Outer Ring Road, Karthik Nagar, Marathahalli, Bengaluru, Karnataka. Pin-560037 (India)",12.9695341,77.7006055,2024-01-17 09:05:46+00:00,2024-01-17 09:05:46+00:00,closed,0.0,construction | ORR East 2 | [LOCATION] towards [LOCATION] and karthiknagara towards marathhalli traffic movement will be slow due to metrostation work
FKID004242,Light update on main road,construction,Non-corridor,Low,False,"Unnamed Road, Begur Chikkanahalli, Bengaluru, Karnataka. Pin-562149 (India)",13.1871368,77.680719,,2024-01-03 16:35:46+00:00,closed,,construction | Non-corridor | Light update on main road
FKID004247,Dambar on road,construction,Non-corridor,Low,False,"NICE Road, Madavara, Bengaluru, Karnataka. Pin-560073 (India)",13.056993,77.4742172,,2024-01-04 02:35:46+00:00,closed,,construction | Non-corridor | Dambar on road
FKID004258,[LOCATION] towards marathhalli and karthiknagara towards mahadevpura traffic movement will be slow due to metrostation work,construction,ORR East 2,High,False,"Outer Ring Road, Karthik Nagar, Marathahalli, Bengaluru, Karnataka. Pin-560037 (India)",12.9694191,77.7005749,,2024-01-05 09:05:46+00:00,closed,,construction | ORR East 2 | [LOCATION] towards marathhalli and karthiknagara towards mahadevpura traffic movement will be slow due to metrostation work
FKID004272,hennur bagalur Main road white tapping work progress,construction,Non-corridor,Low,True,"Hennur Main Road, K Narayanpura Cross, Kothnur Narayanapura, Bengaluru, Karnataka. Pin-560077 (India)",13.0531351,77.6460729,,2023-11-29 19:59:46+00:00,closed,,construction | Non-corridor | hennur bagalur Main road white tapping work progress
FKID004299,[LOCATION] towards [LOCATION] and karthiknagara towards marathhalli traffic movement will be slow due to metrostation work,construction,ORR East 2,High,False,"Outer Ring Road, Karthik Nagar, Marathahalli, Bengaluru, Karnataka. Pin-560037 (India)",12.9695456,77.7005376,,2023-12-01 09:05:46+00:00,closed,,construction | ORR East 2 | [LOCATION] towards [LOCATION] and karthiknagara towards marathhalli traffic movement will be slow due to metrostation work
FKID004330,[LOCATION] towards marathhalli and karthiknagara towards mahadevpura traffic movement will be slow due to metrostation work,construction,ORR East 2,High,False,"Outer Ring Road, Karthik Nagar, Marathahalli, Bengaluru, Karnataka. Pin-560037 (India)",12.9694905,77.7006332,,2024-01-06 09:05:46+00:00,closed,,construction | ORR East 2 | [LOCATION] towards marathhalli and karthiknagara towards mahadevpura traffic movement will be slow due to metrostation work
FKID004362,[LOCATION] towards marathhalli and karthiknagara towards mahadevpura traffic movement will be slow due to metrostation work,construction,ORR East 2,High,False,"Outer Ring Road, Karthik Nagar, Marathahalli, Bengaluru, Karnataka. Pin-560037 (India)",12.9695083,77.7006091,,2023-12-02 09:05:46+00:00,closed,,construction | ORR East 2 | [LOCATION] towards marathhalli and karthiknagara towards mahadevpura traffic movement will be slow due to metrostation work
FKID004364,[LOCATION] junction to [PERSON] cross BWSSB Work in progress. traffic slow moment sir only pik Hour sir,construction,Bellary Road 1,High,False,"1st Main Road, Training Quarters, Armane Nagar, Bengaluru, Karnataka. Pin-560094 (India)",13.0240181,77.5831956,,2023-12-09 21:33:46+00:00,closed,,construction | Bellary Road 1 | [LOCATION] junction to [PERSON] cross BWSSB Work in progress. traffic slow moment sir only pik Hour sir
FKID004381,Construction,construction,Non-corridor,Low,False,"Mutthukadhahalli, Muttugadahalli, Yelahanka taluku, Bengaluru Urban, Karnataka, 560064, India",13.14426769,77.53198808,,2023-12-03 05:05:46+00:00,closed,,construction | Non-corridor | Construction
FKID004386,ಶ್ರೀ ಗೋಪಾಲಯ್ಯನವರು ಎಂಎಲ್ಎ ಕಾಮಾಕ್ಷಿಪಾಳ್ಯ ರವರಿಂದ ಹಿಂದೂ ಸಮಾಜೋತ್ಸವ ಸುಮಾರು ಸಾವಿರ ಜನ ಕಾರ್ಯಕರ್ತರು ಕಾಮಾಕ್ಷಿಪಾಳ್ಯ ಕೆರೆ ಮೈದಾನ ದಲ್ಲಿ ಸೇರಿರುತ್ತಾರೆ,public_event,Magadi Road,High,False,"G Narayana Kumar Road, Soundarya Kamakshi, Karekallu, Kamakshipalya, Bengaluru, Karnataka. Pin-560079 (India)",12.9837267,77.5293267,,2023-12-03 09:49:46+00:00,closed,,public_event | Magadi Road | ಶ್ರೀ ಗೋಪಾಲಯ್ಯನವರು ಎಂಎಲ್ಎ ಕಾಮಾಕ್ಷಿಪಾಳ್ಯ ರವರಿಂದ ಹಿಂದೂ ಸಮಾಜೋತ್ಸವ ಸುಮಾರು ಸಾವಿರ ಜನ ಕಾರ್ಯಕರ್ತರು ಕಾಮಾಕ್ಷಿಪಾಳ್ಯ ಕೆರೆ ಮೈದಾನ ದಲ್ಲಿ ಸೇರಿರುತ್ತಾರೆ
FKID004426,[PERSON],public_event,Non-corridor,Low,True,"Varthur - Sarjapur Road, Gunjur, Bengaluru East City Corporation, Bengaluru, Bangalore East, Bengaluru Urban, Karnataka, 560087, India",12.92080865,77.73643041,2023-12-03 12:05:46+00:00,2023-12-04 11:35:46+00:00,closed,1410.0,public_event | Non-corridor | [PERSON]
FKID004427,Drainage work is going on near [LOCATION] towards [LOCATION],construction,Non-corridor,Low,False,"Vinoba Nagar Main Road, Gogappa Industrial Area, Kadugondanahalli, Bengaluru, Karnataka. Pin-560045 (India)",13.0256154,77.6199225,,2023-12-04 14:00:46+00:00,closed,,construction | Non-corridor | Drainage work is going on near [LOCATION] towards [LOCATION]
FKID004430,Local Festival and maddhuramma fair going on 14th Sunday ..huge crowd and narrow road due to traffic slow movement sir,public_event,Non-corridor,Low,False,"Haralur Road, Madduramma Junction, Ambalipura, Bengaluru, Karnataka. Pin-560102 (India)",12.9017824,77.6605353,,2024-01-20 19:00:46+00:00,closed,,public_event | Non-corridor | Local Festival and maddhuramma fair going on 14th Sunday ..huge crowd and narrow road due to traffic slow movement sir
FKID004448,BWSSB pipe line work slow moving traffic hebbal cricle towards badrappa layout,construction,ORR North 2,High,False,"2nd Main Road, Abdul Patel Syed Layout, Bhoopasandra, RMV Stage 2, Bengaluru, Karnataka. Pin-560094 (India)",13.0450176,77.5816628,,2024-02-21 03:30:46+00:00,closed,,construction | ORR North 2 | BWSSB pipe line work slow moving traffic hebbal cricle towards badrappa layout
FKID004467,Thumakuru mattada [PERSON] procession,procession,Non-corridor,Low,True,"Magadi Main Road, BEL Stage 2, Bharath Nagar, Bengaluru, Karnataka. Pin-560091 (India)",12.9821891,77.4802964,,2023-11-12 22:16:46+00:00,closed,,procession | Non-corridor | Thumakuru mattada [PERSON] procession
FKID004477,[LOCATION] towards marathhalli and karthiknagara towards mahadevpura traffic movement will be slow due to metrostation piller work,construction,ORR East 2,High,False,"Outer Ring Road, Karthik Nagar, Marathahalli, Bengaluru, Karnataka. Pin-560037 (India)",12.9695191,77.7006056,,2023-12-06 09:05:46+00:00,closed,,construction | ORR East 2 | [LOCATION] towards marathhalli and karthiknagara towards mahadevpura traffic movement will be slow due to metrostation piller work
FKID004486,[PERSON] at [PERSON].,public_event,Bellary Road 1,High,True,"ತಲುಪಲು ಚೌಡಯ್ಯ ರಸ್ತೆ, ಚಕ್ರವರ್ತಿ ಲೇಔಟ್, ವಸಂತ ನಗರ, ಬೆಂಗಳೂರು ಮಧ್ಯ ನಗರ ನಿಗಮ, Bengaluru, ಬೆಂಗಳೂರು ಉತ್ತರ, ಬೆಂಗಳೂರು ನಗರ, Karnataka, 560001, India",12.99378563,77.58500934,2023-11-12 17:05:46+00:00,2023-11-13 10:05:46+00:00,closed,1020.0,public_event | Bellary Road 1 | [PERSON] at [PERSON].
FKID004509,[PERSON] jatr Harluru Road,procession,Non-corridor,Low,True,"Sri Dinne Anjaneya Swamy Temple Road, Madduramma Junction, Ambalipura, Bengaluru, Karnataka. Pin-560102 (India)",12.9016722,77.6605921,,2024-01-22 03:05:46+00:00,closed,,procession | Non-corridor | [PERSON] jatr Harluru Road
FKID004527,public event,public_event,Non-corridor,Low,False,"D Group Employees Layout, Yarappanahalli, Bangalore East, Bengaluru Urban, Karnataka, 562149, India",13.09944256,77.6981959,,2023-12-07 05:05:46+00:00,closed,,public_event | Non-corridor | public event
FKID004535,Airport taxi drivers protest begur galamma circle to towards airport so trffic slow moment,protest,Non-corridor,Low,False,"Unnamed Road, Begur Chikkanahalli, Bengaluru, Karnataka. Pin-562149 (India)",13.184446,77.6797199,,2023-11-14 23:15:46+00:00,closed,,protest | Non-corridor | Airport taxi drivers protest begur galamma circle to towards airport so trffic slow moment
FKID004537,[LOCATION] towards marathhalli and karthiknagara towards mahadevpura traffic movement will be slow due to metrostation work,construction,ORR East 2,High,False,"Outer Ring Road, Karthik Nagar, Marathahalli, Bengaluru, Karnataka. Pin-560037 (India)",12.9694366,77.7006513,,2023-12-07 09:05:46+00:00,closed,,construction | ORR East 2 | [LOCATION] towards marathhalli and karthiknagara towards mahadevpura traffic movement will be slow due to metrostation work
FKID004555,[LOCATION] towards [LOCATION] and karthiknagara towards marathhalli traffic movement will be slow due to metrostation work,construction,ORR East 2,High,False,"Outer Ring Road, LRDE Employee Housing Colony, Karthik Nagar, Marathahalli, Bengaluru, Karnataka. Pin-560037 (India)",12.9696116,77.7009772,,2023-11-15 09:05:46+00:00,closed,,construction | ORR East 2 | [LOCATION] towards [LOCATION] and karthiknagara towards marathhalli traffic movement will be slow due to metrostation work
FKID004557,ಕೆಂಪಾಪುರ ಏರ್ಪೋರ್ಟ್ ಕಡೆಗೆ ಎನ್ ಎಚ್ ಐ ರವರು ಬ್ಯಾರಿಕೆಟ್ ಹಾಕುತ್ತಿದ್ದಾರೆ ಸರ್,construction,Bellary Road 1,High,False,"Bellary Road, Esteem Mall, Hebbal Kempapura, Bengaluru, Karnataka. Pin-560024 (India)",13.0511128,77.5930445,,2023-12-07 17:20:46+00:00,closed,,construction | Bellary Road 1 | ಕೆಂಪಾಪುರ ಏರ್ಪೋರ್ಟ್ ಕಡೆಗೆ ಎನ್ ಎಚ್ ಐ ರವರು ಬ್ಯಾರಿಕೆಟ್ ಹಾಕುತ್ತಿದ್ದಾರೆ ಸರ್
FKID004563,[LOCATION] towards marathhalli and karthiknagara towards mahadevpura traffic movement will be slow due to metrostation work,construction,ORR East 2,High,False,"Outer Ring Road, Karthik Nagar, Marathahalli, Bengaluru, Karnataka. Pin-560037 (India)",12.9694104,77.7006492,,2023-11-16 09:05:46+00:00,closed,,construction | ORR East 2 | [LOCATION] towards marathhalli and karthiknagara towards mahadevpura traffic movement will be slow due to metrostation work
FKID004585,[LOCATION] towards marathhalli and karthiknagara towards mahadevpura traffic movement will be slow due to metrostation work,construction,ORR East 2,High,False,"Outer Ring Road, Karthik Nagar, Marathahalli, Bengaluru, Karnataka. Pin-560037 (India)",12.9694271,77.7006105,,2024-01-09 09:05:46+00:00,closed,,construction | ORR East 2 | [LOCATION] towards marathhalli and karthiknagara towards mahadevpura traffic movement will be slow due to metrostation work
FKID004594,Slow moving traffic from IIMB towards [PERSON] due to bwssb work.,construction,Bannerghata Road,High,False,"Bannerghatta Main Road, IIM Professors Quarters, Indian Institute of Management, Bengaluru, Karnataka. Pin-560076 (India)",12.8973337,77.599845,,2024-01-19 02:43:46+00:00,closed,,construction | Bannerghata Road | Slow moving traffic from IIMB towards [PERSON] due to bwssb work.
FKID004597,[LOCATION] towards marathhalli and karthiknagara towards mahadevpura traffic movement will be slow due to metrostation piller work,construction,ORR East 2,High,False,"Outer Ring Road, Karthik Nagar, Marathahalli, Bengaluru, Karnataka. Pin-560037 (India)",12.9695647,77.7006957,,2023-11-17 09:05:46+00:00,closed,,construction | ORR East 2 | [LOCATION] towards marathhalli and karthiknagara towards mahadevpura traffic movement will be slow due to metrostation piller work
FKID004603,[LOCATION] towards marathhalli and karthiknagara towards mahadevpura traffic movement will be slow due to metrostation piller work,construction,ORR East 2,High,False,"Outer Ring Road, Karthik Nagar, Marathahalli, Bengaluru, Karnataka. Pin-560037 (India)",12.9695046,77.7005611,,2023-12-08 09:05:46+00:00,closed,,construction | ORR East 2 | [LOCATION] towards marathhalli and karthiknagara towards mahadevpura traffic movement will be slow due to metrostation piller work
FKID004609,Birthday day of local leader,public_event,Non-corridor,Low,False,"Sri Sathyanarayana Swamy Temple Road, Kakathiyanagar, Banashankari Stage 3, Bengaluru, Karnataka. Pin-560061 (India)",12.9180359,77.5467202,,2023-11-17 11:19:46+00:00,closed,,public_event | Non-corridor | Birthday day of local leader
FKID004622,[PERSON] cross to [LOCATION] sir,construction,Non-corridor,Low,False,"4th Cross Road, Ashwath Nagar, Armane Nagar, Bengaluru, Karnataka. Pin-560094 (India)",13.0260297,77.5803894,,2023-12-14 21:39:46+00:00,closed,,construction | Non-corridor | [PERSON] cross to [LOCATION] sir
FKID004629,10 ದೇವರುಗಳ ಮೆರವಣೆಗೆ,public_event,Magadi Road,High,False,"1st Main Road, Ramaiah Industrial Estate, Madeshwara Nagar, Bengaluru, Karnataka. Pin-560091 (India)",12.988794,77.4938951,,2023-11-18 07:35:46+00:00,closed,,public_event | Magadi Road | 10 ದೇವರುಗಳ ಮೆರವಣೆಗೆ
FKID004632,[PERSON] Festival,public_event,Non-corridor,Low,True,"Muthanalluru Road, Huskur, Huskuru, Gattahalli, Anekal, Bengaluru Urban, Karnataka, 560099, India",12.85849674,77.70843889,2024-01-19 12:05:46+00:00,2024-01-22 11:35:46+00:00,closed,4290.0,public_event | Non-corridor | [PERSON] Festival
FKID004640,[LOCATION] road working sir,construction,Non-corridor,Low,True,"KV Jairam Road, BGS Layout, Jakkuru, Bengaluru, Karnataka. Pin-560064 (India)",13.0728062,77.6022497,,2023-12-09 02:40:46+00:00,closed,,construction | Non-corridor | [LOCATION] road working sir
FKID004641,Town festival in [LOCATION] town some streets traffic is diverted sir so traffic heavy moving towards hsbc junction from [LOCATION] junction sir,public_event,Non-corridor,Low,True,"4th Cross Road, Bilekahalli, Bengaluru, Karnataka. Pin-560076 (India)",12.8983117,77.6055099,,2024-01-10 08:05:46+00:00,closed,,public_event | Non-corridor | Town festival in [LOCATION] town some streets traffic is diverted sir so traffic heavy moving towards hsbc junction from [LOCATION] junction sir
FKID004642,[LOCATION] sanitary work in progress sir not a traffic issue sir,construction,Non-corridor,Low,False,"Anjanapura Main Road, Kristal Dolomite, Narayana Nagar, Doddakallasandra, Bengaluru, Karnataka. Pin-560062 (India)",12.8819199,77.5504489,,2024-01-10 08:26:46+00:00,closed,,construction | Non-corridor | [LOCATION] sanitary work in progress sir not a traffic issue sir
FKID004644,[LOCATION] towards marathhalli and karthiknagara towards mahadevpura traffic movement will be slow due to metrostation work,construction,ORR East 2,High,False,"Outer Ring Road, Karthik Nagar, Marathahalli, Bengaluru, Karnataka. Pin-560037 (India)",12.9695891,77.7006312,,2024-01-10 09:05:46+00:00,closed,,construction | ORR East 2 | [LOCATION] towards marathhalli and karthiknagara towards mahadevpura traffic movement will be slow due to metrostation work
FKID004646,[LOCATION] towards marathhalli and karthiknagara towards mahadevpura traffic movement will be slow due to metrostation piller work,construction,ORR East 2,High,False,"Outer Ring Road, LRDE Employee Housing Colony, Karthik Nagar, Marathahalli, Bengaluru, Karnataka. Pin-560037 (India)",12.9693211,77.7012017,,2023-11-19 09:05:46+00:00,closed,,construction | ORR East 2 | [LOCATION] towards marathhalli and karthiknagara towards mahadevpura traffic movement will be slow due to metrostation piller work
FKID004653,White tapping work is going on sir,construction,Non-corridor,Low,True,"Hennur Main Road, Geddalahalli, Bengaluru, Karnataka. Pin-560077 (India)",13.0493257,77.645601,,2024-01-15 10:55:46+00:00,closed,,construction | Non-corridor | White tapping work is going on sir
FKID004662,[LOCATION] towards [LOCATION] and karthiknagara towards marathhalli traffic movement will be slow due to metrostation piller work,construction,ORR East 2,High,False,"Outer Ring Road, Karthik Nagar, Marathahalli, Bengaluru, Karnataka. Pin-560037 (India)",12.9696589,77.7006699,,2023-12-09 09:05:46+00:00,closed,,construction | ORR East 2 | [LOCATION] towards [LOCATION] and karthiknagara towards marathhalli traffic movement will be slow due to metrostation piller work
FKID004670,[LOCATION] towards marathhalli and karthiknagara towards mahadevpura traffic movement will be slow due to metrostation work,construction,ORR East 2,High,False,"Outer Ring Road, Karthik Nagar, Marathahalli, Bengaluru, Karnataka. Pin-560037 (India)",12.9694684,77.7006456,,2024-01-11 09:05:46+00:00,closed,,construction | ORR East 2 | [LOCATION] towards marathhalli and karthiknagara towards mahadevpura traffic movement will be slow due to metrostation work
FKID004680,Footpath work [LOCATION] to [LOCATION] traffic movement slow only pikhour movement sir,construction,Non-corridor,Low,False,"Dr Rajgopal Road, Ashwath Nagar, Armane Nagar, Bengaluru, Karnataka. Pin-560094 (India)",13.026383,77.5803894,,2023-12-09 21:19:46+00:00,closed,,construction | Non-corridor | Footpath work [LOCATION] to [LOCATION] traffic movement slow only pikhour movement sir
FKID004684,[LOCATION] work going on Uttarahalli main road,construction,Non-corridor,Low,False,"Subramanyapura Main Road, Canara Bank Colony, Chikkalsandra, Bengaluru, Karnataka. Pin-560061 (India)",12.9093833,77.5496433,,2024-01-06 23:30:46+00:00,closed,,construction | Non-corridor | [LOCATION] work going on Uttarahalli main road
FKID004700,"Towards rajakumar road, 19th main right 1st block junction sri krishna rata yatre",public_event,West of Chord Road,High,False,"Chord Road, WTC Annexe, Malleshwaram West, Bengaluru, Karnataka. Pin-560055 (India)",13.013618,77.5542469,,2023-11-20 02:27:46+00:00,closed,,"public_event | West of Chord Road | Towards rajakumar road, 19th main right 1st block junction sri krishna rata yatre"
FKID004703,ದೇವರ ಉತ್ಸಾಹ,procession,Magadi Road,High,False,"G Narayana Kumar Road, Kamakshipalya Extension, Kamakshipalya, Bengaluru, Karnataka. Pin-560079 (India)",12.9853508,77.5272773,2023-11-20 07:51:46+00:00,2023-11-20 08:52:46+00:00,closed,61.0,procession | Magadi Road | ದೇವರ ಉತ್ಸಾಹ
FKID004707,Anjineya swamy ಬ್ರಹ್ಮರಥೋತ್ಸವ,public_event,Non-corridor,Low,True,"4th A Cross Road, Tunga Nagar South, Herohalli, Bengaluru, Karnataka. Pin-560091 (India)",12.9899462,77.4871512,2023-12-10 04:52:46+00:00,2023-12-09 18:05:46+00:00,closed,,public_event | Non-corridor | Anjineya swamy ಬ್ರಹ್ಮರಥೋತ್ಸವ
FKID004711,ಅಂಜನೇಯ ಸ್ವಾಮಿಯ ಬ್ರಹ್ಮರಥೋತ್ಸವ,public_event,Non-corridor,Low,True,"4th A Cross Road, Tunga Nagar South, Herohalli, Bengaluru, Karnataka. Pin-560091 (India)",12.990028,77.4871935,,2023-12-12 18:05:46+00:00,closed,,public_event | Non-corridor | ಅಂಜನೇಯ ಸ್ವಾಮಿಯ ಬ್ರಹ್ಮರಥೋತ್ಸವ
FKID004721,Vip Movement,vip_movement,Non-corridor,Low,False,"Nadagowda Gollahalli, Gollahalli, Bangalore East, Bengaluru Urban, Karnataka, 562149, India",13.07936896,77.67621801,,2023-12-10 06:05:46+00:00,closed,,vip_movement | Non-corridor | Vip Movement
FKID004722,Tumkur higway near to nice road  work going on sir,construction,Non-corridor,Low,False,"Mumbai Bengaluru Highway, Madavara, Bengaluru, Karnataka. Pin-560073 (India)",13.0571787,77.4734718,,2023-11-20 14:32:46+00:00,closed,,construction | Non-corridor | Tumkur higway near to nice road  work going on sir
FKID004726,[LOCATION] towards [LOCATION] and karthiknagara towards marathhalli traffic movement will be slow due to metrostation work,construction,ORR East 2,High,False,"Outer Ring Road, Karthik Nagar, Marathahalli, Bengaluru, Karnataka. Pin-560037 (India)",12.9693962,77.7007254,,2024-01-23 09:05:46+00:00,closed,,construction | ORR East 2 | [LOCATION] towards [LOCATION] and karthiknagara towards marathhalli traffic movement will be slow due to metrostation work
FKID004740,[PERSON] main road traffic moment slow only pikhour time sir,construction,Non-corridor,Low,False,"Dr Rajgopal Road, Amar Jyothi Layout, Sanjay Nagar, Bengaluru, Karnataka. Pin-560094 (India)",13.0366434,77.5746848,2024-01-11 23:03:46+00:00,2024-03-07 23:03:46+00:00,closed,80640.0,construction | Non-corridor | [PERSON] main road traffic moment slow only pikhour time sir
FKID004741,[LOCATION] work in progress infront of vishaal maart so traffic moving slowly from hsbc junction to [LOCATION] junction sir,construction,Bannerghata Road,High,False,"Bannerghatta Main Road, IIM Professors Quarters, Indian Institute of Management, Bengaluru, Karnataka. Pin-560076 (India)",12.8973454,77.5999179,,2024-01-19 20:12:46+00:00,closed,,construction | Bannerghata Road | [LOCATION] work in progress infront of vishaal maart so traffic moving slowly from hsbc junction to [LOCATION] junction sir
FKID004750,Hindu samajostava procession bagaluru cross towards reva collage junction sir. Traffic movement is slow sir,procession,Non-corridor,Low,True,"Bagaluru Main Road, Columbus Square, Dwarka Nagar, Kattigenahalli, Bengaluru, Karnataka. Pin-560063 (India)",13.1215483,77.6207367,,2023-12-10 18:02:46+00:00,closed,,procession | Non-corridor | Hindu samajostava procession bagaluru cross towards reva collage junction sir. Traffic movement is slow sir
FKID004753,Hindu Samajothsava proccession from [LOCATION] main road to Swamy [PERSON] ground btm 2nd stage.,procession,Non-corridor,Low,False,"1st Cross Road, AK Colony, Sadduguntepalya, Bengaluru, Karnataka. Pin-560029 (India)",12.930218,77.6085546,,2023-12-11 04:50:46+00:00,closed,,procession | Non-corridor | Hindu Samajothsava proccession from [LOCATION] main road to Swamy [PERSON] ground btm 2nd stage.
FKID004760,Railway  underpass  underpass work progress sir,construction,ORR North 2,High,False,"10th Cross Road, Lottegollahalli Subramanya Colony, Block 4, RMV Stage 2, Bengaluru, Karnataka. Pin-560094 (India)",13.0470033,77.5673414,,2023-12-11 08:56:46+00:00,closed,,construction | ORR North 2 | Railway  underpass  underpass work progress sir
FKID004766,[LOCATION] towards marathhalli and karthiknagara towards mahadevpura traffic movement will be slow due to metrostation piller work,construction,ORR East 2,High,False,"Outer Ring Road, Karthik Nagar, Marathahalli, Bengaluru, Karnataka. Pin-560037 (India)",12.9696624,77.7005323,,2023-11-22 09:05:46+00:00,closed,,construction | ORR East 2 | [LOCATION] towards marathhalli and karthiknagara towards mahadevpura traffic movement will be slow due to metrostation piller work
FKID004771,[PERSON],public_event,Non-corridor,Low,True,"Herohalli, Bengaluru West City Corporation, Bengaluru, Bangalore North, Bengaluru Urban, Karnataka, 560091, India",12.99037089,77.4873556,2023-12-09 12:05:46+00:00,2023-12-11 12:05:46+00:00,closed,2880.0,public_event | Non-corridor | [PERSON]
FKID004784,[LOCATION] towards marathhalli and karthiknagara towards mahadevpura traffic movement will be slow due to metrostation piller work,construction,ORR East 2,High,False,"Outer Ring Road, Karthik Nagar, Marathahalli, Bengaluru, Karnataka. Pin-560037 (India)",12.969397,77.7006524,,2023-11-23 09:05:46+00:00,closed,,construction | ORR East 2 | [LOCATION] towards marathhalli and karthiknagara towards mahadevpura traffic movement will be slow due to metrostation piller work
FKID004792,Benniganahalli o.m.road,public_event,ORR North 1,High,True,"Old Madras Road, Gopalan Grand Mall, Nagavara Palya, CV Raman Nagar, Bengaluru, Karnataka. Pin-560093 (India)",12.9939167,77.6630384,,2024-01-12 04:44:46+00:00,closed,,public_event | ORR North 1 | Benniganahalli o.m.road
FKID004799,[LOCATION] towards marathhalli and karthiknagara towards mahadevpura traffic movement will be slow due to metrostation piller work,construction,ORR East 2,High,False,"Outer Ring Road, Karthik Nagar, Marathahalli, Bengaluru, Karnataka. Pin-560037 (India)",12.969499,77.7006104,,2023-12-12 09:05:46+00:00,closed,,construction | ORR East 2 | [LOCATION] towards marathhalli and karthiknagara towards mahadevpura traffic movement will be slow due to metrostation piller work
FKID004823,White tapping work is in progress at Hennur bagalur main road sir,construction,Non-corridor,Low,True,"Hennur Main Road, Atel Munishamappa Garden, Narayanpura, Kothnur Narayanapura, Bengaluru, Karnataka. Pin-560077 (India)",13.0556221,77.6471416,,2023-11-24 06:05:46+00:00,closed,,construction | Non-corridor | White tapping work is in progress at Hennur bagalur main road sir
FKID004848,[LOCATION] towards marathhalli and karthiknagara towards mahadevpura traffic movement will be slow due to metrostation work,construction,ORR East 2,High,False,"Outer Ring Road, LRDE Employee Housing Colony, Karthik Nagar, Marathahalli, Bengaluru, Karnataka. Pin-560037 (India)",12.9693762,77.7012364,,2024-01-12 09:05:46+00:00,closed,,construction | ORR East 2 | [LOCATION] towards marathhalli and karthiknagara towards mahadevpura traffic movement will be slow due to metrostation work
FKID004856,[LOCATION] sir k narayanapura hattira White topping work nadiyuttiruvudrinda vehicle movement slow ide ide sir [PERSON],construction,Non-corridor,Low,False,"Hennur Main Road, Chowriappa Constellation, Kothnur Narayanapura, Bengaluru, Karnataka. Pin-560077 (India)",13.0547666,77.6465688,,2023-11-28 23:05:46+00:00,closed,,construction | Non-corridor | [LOCATION] sir k narayanapura hattira White topping work nadiyuttiruvudrinda vehicle movement slow ide ide sir [PERSON]
FKID004866,BWSSB work at [LOCATION] NEAR  bhadrapp layout sir,construction,ORR North 2,High,False,"Outer Ring Road, Abdul Patel Syed Layout, Bhoopasandra, RMV Stage 2, Bengaluru, Karnataka. Pin-560094 (India)",13.0446193,77.5828983,,2024-01-24 00:55:46+00:00,closed,,construction | ORR North 2 | BWSSB work at [LOCATION] NEAR  bhadrapp layout sir
FKID004884,Singer [PERSON] chouhan concert terra form near stone hills juction chapparakallu road  slow moving traffic,public_event,Non-corridor,Low,False,"Telecom Layout Road, Phase 2A, After The Rain, Bettahalasur, Bengaluru, Karnataka. Pin-562157 (India)",13.160686,77.5955777,,2023-11-26 11:35:46+00:00,closed,,public_event | Non-corridor | Singer [PERSON] chouhan concert terra form near stone hills juction chapparakallu road  slow moving traffic
FKID004885,Terra form singer  [PERSON] concert.                     Chapparakallu road  stone hills international school junction slow moving traffic,public_event,Non-corridor,Low,False,"Telecom Layout Road, Phase 2A, After The Rain, Bettahalasur, Bengaluru, Karnataka. Pin-562157 (India)",13.1607775,77.5956523,,2023-11-26 11:36:46+00:00,closed,,public_event | Non-corridor | Terra form singer  [PERSON] concert.                     Chapparakallu road  stone hills international school junction slow moving traffic
FKID004886,[LOCATION] towards marathhalli and karthiknagara towards mahadevpura traffic movement will be slow due to metrostation work,construction,ORR East 2,High,False,"Outer Ring Road, Karthik Nagar, Marathahalli, Bengaluru, Karnataka. Pin-560037 (India)",12.9695686,77.7006655,,2024-01-13 09:05:46+00:00,closed,,construction | ORR East 2 | [LOCATION] towards marathhalli and karthiknagara towards mahadevpura traffic movement will be slow due to metrostation work
FKID004887,Singer [PERSON] chouhan concert terra form near stone hills juction chapparakallu road  slow moving traffic,public_event,Non-corridor,Low,False,"Telecom Layout Road, Phase 2A, After The Rain, Bettahalasur, Bengaluru, Karnataka. Pin-562157 (India)",13.160686,77.5955777,,2023-11-26 11:35:46+00:00,closed,,public_event | Non-corridor | Singer [PERSON] chouhan concert terra form near stone hills juction chapparakallu road  slow moving traffic
FKID004893,Central Government railway underpass work progress sir,construction,ORR North 2,High,False,"Outer Ring Road, Lottegollahalli Subramanya Colony, Block 4, RMV Stage 2, Bengaluru, Karnataka. Pin-560094 (India)",13.0468481,77.5672233,,2023-12-18 08:35:46+00:00,closed,,construction | ORR North 2 | Central Government railway underpass work progress sir
FKID004903,[LOCATION] towards marathhalli and karthiknagara towards mahadevpura traffic movement will be slow due to metrostation work,construction,ORR East 2,High,False,"Outer Ring Road, Karthik Nagar, Marathahalli, Bengaluru, Karnataka. Pin-560037 (India)",12.9694511,77.7006392,,2024-01-24 09:05:46+00:00,closed,,construction | ORR East 2 | [LOCATION] towards marathhalli and karthiknagara towards mahadevpura traffic movement will be slow due to metrostation work
